"","names","avg_lat","avg_lon","count"
"1","Abbot_Francis H. (Francis Harris)_1877-1933",36.9091926878307,-85.8555631693122,21
"2","Abernathy_Will",37.3226260784314,-86.2185565424837,17
"3","Abshire_Nathan_1913-1981",35.8671102941176,-91.0939705882353,17
"4","Acuff_Charlie_1919-2013",38.2093916666667,-88.5265,3
"5","Acuff_Roy",36.8370921919192,-88.3306811111111,55
"6","Adams_Derroll",47.4153770833333,-44.2490416666667,4
"7","Addis_Bill",39.2093916666667,-86.6931666666667,3
"8","Akers_Robert",36.8303137152778,-81.9101835069445,16
"9","Alevizos_Ted",38.5,23,1
"10","Alexander_Charlie_ca. 1904-ca. 1970",33.6014287037037,-93.5526111111111,3
"11","Alexander_Stan",35.4140875,-99.28975,2
"12","Alexander_Texas_1900-1954",37.6778621527778,-89.622888888889,8
"13","Alger_Pat",41.623651,-82.5656666666667,3
"14","Allan_Johnnie_1938-",35.4140875,-95.28975,2
"15","Allen_Austin",37.3226260784314,-86.2185565424837,17
"16","Allen_Lee",37.3226260784314,-86.2185565424837,17
"17","Allen_Red",38.9140875,-91.5814166666667,12
"18","Allgood_S.J.",38.8,-81,1
"19","Altizer_Maude",39.7760583333333,-87.1931666666667,3
"20","Amaya_Carmen",40.2,-3.5,1
"21","Amoaku_W. K. (William Komla)_1940-",35.9157896551724,-86.195649329502,29
"22","Ancelet_Barry Jean",35.504635,-89.9632333333334,5
"23","Andersen_Eric",41.7093916666667,-81.7931666666667,3
"24","Anderson_Alistair",53,-1,1
"25","Angus_Tommy",49.0983333333333,-77.5566666666667,9
"26","Apollon_Dave",41.1803175925926,-82.528537037037,3
"27","Applebaum_Larry_Rinzler_Ralph",39.3615875,-87.8080833333335,2
"28","Appleton_Clyde",37.0574208333333,-105.118222222222,2
"29","Arceneaux_Fernest",40.6093916666667,-60.1931666666667,3
"30","Archuleta_Ricardo",30.1247481482222,-93.0231816014815,15
"31","Ardoin_Amadé",37.0303161395555,-89.7994260944445,50
"32","Ardoin_Morris",35.4140875,-95.28975,2
"33","Arias_A.",23.4464814814815,-103.303194444444,6
"34","Armstrong_Frankie",53.4166666666665,-1.70833333333335,2
"35","Armstrong_Joe",36.7760583333333,-87.0265,3
"36","Armstrong_Lil Hardin_1898-1971",33.6014287037037,-93.5526111111111,3
"37","Armstrong_Louis_1901-1971",34.3243957264957,-92.1254871794872,13
"38","Arnold_Eddy_1918-2008",39.0113466049383,-96.4666450617284,18
"39","Arnold_Kokomo",36.4140875,-92.66475,4
"40","Arthur_Charlie",44.20704375,-89.144875,4
"41","Arthur_Emry_1900-1966",36.2612665526316,-86.5285187339181,38
"42","Arwood_Little Joe",36.2697972222222,-87.3643888888889,9
"43","Asch_John",39.828175,-98.5795,1
"44","Asch_Moses",38.2992580555556,-90.2501277777778,10
"45","Ash_Samuel",38.9186365555556,-97.1658582222222,5
"46","Asher_William_Mrs.",37.8605601388889,-64.9943526388889,20
"47","Ashley_Bertha May",34.5713126666667,-90.1718035333333,3
"48","Ashley_Clarence_1895-1967",37.3398454264741,-87.2014496715203,277
"49","Ashley_John Henry",35.2484226,-91.15898212,5
"50","Askew_Alec",35.1377532407408,-91.4378407407407,6
"51","Astaire_Adele",41.1803175925926,-82.528537037037,3
"52","Astaire_Fred",41.1803175925926,-82.528537037037,3
"53","Atkins_Bobby",38.4521816666666,-85.7345733333334,5
"54","Atkins_Chet",37.0713841666667,-99.4545666666666,10
"55","Atwood_Kenneth",35.504635,-89.9632333333334,5
"56","Austin_Elizabeth",30.1247481482222,-93.0231816014815,15
"57","Austin_Lonnie_1905-1997",37.8014875146199,-85.0911602397661,19
"58","Austin_Morris_Mrs.",44.1393037878788,-77.5633888888889,11
"59","Autry_Gene_1907-1998",36.7939212222222,-89.7412551111111,25
"60","Avant_Jimmie",35.4140875,-99.28975,8
"61","Axton_Hoyt",37.6640875,-98.28975,2
"62","Azar_Joseph",33.833333,35.766667,1
"63","Baboyan_Reuben",38.0091690306514,-66.2447356130269,29
"64","Baca_Gil",40.303836111111,-61.387611111111,6
"65","Bachleda_Stanislav",37.1509915608466,-73.5260046031747,21
"66","Baez_Joan",39.0099441176471,-81.8221764705882,17
"67","Baez_Joan_Guthrie_Woody_1912-1967",37.6640875,-98.28975,2
"68","Bailey_DeFord",37.6975993055556,-88.0884861111111,4
"69","Bailey_Green",37.525635,-84.9159,5
"70","Baker_Belle",38.9186365555556,-97.1658582222222,5
"71","Baker_Bill",38.5823016666666,-84.5642333333334,10
"72","Baker_Etta_1913-2006",43.5586673611111,-49.5990324074074,12
"73","Baker_J. W.",38.7093916666667,-88.1931666666667,3
"74","Baker_J. W. Mrs.",38.7093916666667,-88.1931666666667,3
"75","Baker_James",32.233535440404,-91.4575244794613,33
"76","Baker_Josephine_1906-1975",47,2,2
"77","Baker_Kenny_1926-2011",38.5495267156862,-86.2401666666667,34
"78","Baker_Mose ""Clear Rock""",31.4400923722222,-91.6290507198413,14
"79","Baker_Willie",36.4140875,-91.03975,2
"80","Balfa_Dewey",36.5017935185185,-88.2556296296296,36
"81","Ball_E.C. (Estil Cortez)_1913-1978",36.7879419666667,-87.2894909444445,50
"82","Ball_Lenville",37.1784285407407,-86.7704681,30
"83","Ball_Orna_1907-2000",37.4814553535353,-86.0279759343434,22
"84","Balls_Ronnie",54.1333333333332,-2.36666666666668,5
"85","Banks_Ernest",38.2896694444444,-85.0053888888889,3
"86","Bankston_Emmett",37.2093916666667,-87.6931666666667,3
"87","Barbecue Bob_1902-1931",37.4251072222222,-89.9062611111111,10
"88","Barker_Horton_1889-1973",36.7772754507337,-87.3274035828093,53
"89","Barker_Red",37.8861354166666,-85.9065458333334,8
"90","Barnes_Brady_d. 1985",35.5944842592593,-88.4875185185187,3
"91","Barnes_Lucy",35.5944842592593,-88.4875185185187,3
"92","Barnicle_Mary Elizabeth_1891-1978",30.1247481482222,-93.0231816014815,15
"93","Barr_Alex_1910-1976",38.4730585866667,-90.5034771477777,30
"94","Barry_Margaret_1917-1989",52.8900925925925,-4.59069444444445,12
"95","Barry_Michael F.",37.9860192657005,-82.6719866135266,23
"96","Barthélemy_Alma",34.5742972222222,-94.5000634920635,7
"97","Barton_Elmer",37.8835794444445,-88.138483420139,32
"98","Barzas_Maurice",35.4140875,-95.28975,2
"99","Baschir_Munir",33,43,1
"100","Basquin_Peter",41.1803175925926,-82.528537037037,3
"101","Battle_Kathleen",41.1803175925926,-82.528537037037,3
"102","Baxter_Andrew",38.0091690306514,-66.2447356130269,29
"103","Baxter_Jim_musician",38.0091690306514,-66.2447356130269,29
"104","Baxter_L.P.",37.1509915608466,-73.5260046031747,21
"105","Bayes_Nora_1880-1928",39.6316225396825,-94.2012558730159,7
"106","Beasley_Walter",37.4115069166667,-90.0704501111111,20
"107","Beatrice",35.504635,-89.9632333333334,5
"108","Beaudoin_Louis",42.66829375,-78.2251618055555,4
"109","Beauregard_Nathan_ca. 1890-1970",36.9818916666667,-91.5168703703703,3
"110","Bechet_Sidney_1897-1959",34.9440817460317,-90.9022380952381,7
"111","Beck_Elder",37.5486165277778,-83.1656694444445,20
"112","Beck_Horace Palmer_1920-",39.065635,-83.0159,5
"113","Beeker_H.J.",36.7074425322997,-88.3088281266151,43
"114","Begley_Justis",36.19557138322,-86.5360276961451,49
"115","Behan_Dominic",53,-8,1
"116","Behan_Dominic (liner notes)",53,-8,1
"117","Bell_Arthur",32.8181777011696,-91.3311367233918,19
"118","Bell_Earlan",36.9818916666667,-91.5168703703703,3
"119","Bellard_Lindsay",35.4140875,-95.28975,6
"120","Benfield_Kenneth",36.2042428819444,-85.5598895833334,32
"121","Benfield_Neriah",36.2042428819444,-85.5598895833334,32
"122","Benford_Mac",38.303803968254,-98.2038650793657,7
"123","Bennett_Freeman",52.95,-75.6,3
"124","Bergeron_Shirley Jean",35.4140875,-95.28975,2
"125","Berggren_Dan",41.4140875,-86.78975,2
"126","Berline_Byron",43.0383642857143,-106.376952380953,7
"127","Bernard_Jean Marc",47,2,1
"128","Berry_Chuck",38.9848546296296,-93.7596481481481,6
"129","Beverett_Vernon",36.2640875,-92.63975,2
"130","Beverly_Bonnie",37.2119125,-84.3203833333333,6
"131","Bhairavi_Rag Sindhu",22.8,83,1
"132","Bhattachanrya_Deben",31.5315740740741,62.2842592592593,6
"133","Bikel_Theodore",44.7155613095238,-59.2967976190476,14
"134","Birchfield_Bill_1945-2015",37.3677707777778,-85.9548695555556,10
"135","Birchfield_Creed_1905-1998",37.3677707777778,-85.9548695555556,5
"136","Birchfield_Joe_1912-2001",37.3677707777778,-85.9548695555556,10
"137","Bird_Annie",38.9734921296296,-82.4309351851852,6
"138","Bird_William Ernest",36.9091926878307,-85.8555631693122,21
"139","Birigwa",1.28,32.39,1
"140","Blackwell_Scrapper_1903-1962",36.8309755555555,-90.7601488888889,10
"141","Blackwell_Willie (61)",36.3072646388888,-86.5571569444444,20
"142","Blake_Norman_1938-",37.769762037037,-89.4889074074074,6
"143","Blatti_Jo",41.4140875,-86.78975,2
"144","Blesh_Rudi_1899-1985",41.4140875,-86.78975,2
"145","Blevins_Frank_1911-2001",35.8361230555555,-85.5548111111111,10
"146","Blind Blake",36.0873521464646,-87.0813712121213,22
"147","Boardman_Harry_1930-1987",53.4166666666665,-1.70833333333335,2
"148","Bogan_Ted_1910-1990",36.58204375,-88.394875,4
"149","Boggs_Dock_1898-1971",37.3568643790849,-83.2894836601307,17
"150","Bois-sec",35.4140875,-95.28975,8
"151","Bolduc_Edouard_Mme._1894-1941",54,-90.5,4
"152","Bolick_Bill",36.3847686410256,-87.4551129729345,78
"153","Bolick_Earl",36.7022587578616,-87.3699820765199,106
"154","Bolick_Earl_Roosevelt_Franklin D. (Franklin Delano)_1882-1945",36.6880291666667,-87.26325,6
"155","Bolick_Glenn",37.6640875,-89.28975,2
"156","Bonet_Maria Del Mar",40.2,-3.5,3
"157","Bonner_Juke Boy_1932-1978",33.6248546296297,-99.2400185185187,3
"158","Bonner_Patrick",37.8835794444445,-88.138483420139,32
"159","Bonney_Betty",41.4140875,-86.78975,2
"160","Bonsall_Joe",35.4140875,-95.28975,2
"161","Booker_Jim",38.3416739814814,-85.304378712963,12
"162","Boone_Claude",35.5611364616488,-87.4665111917563,31
"163","Boone_Eva Grace",35.9547279239766,-88.6913478947369,19
"164","Borusky_Pearl Jacobs",40.1121457539682,-90.2107771785715,28
"165","Bot_Pam",10.0980692121212,9.31556190909091,11
"166","Botkin_Benjamin Albert_1901-1975",33.8217676333333,-89.0047286091503,34
"167","Bowie_James",54.611111111111,-2.80555555555557,3
"168","Bowlen_Charles",43.3018027777777,-90.4126900462964,12
"169","Bowles_Sam (Musician)",37.4115069166667,-90.0704501111111,20
"170","Bowman_Charlie",36.4292956944444,-85.50055,20
"171","Boyce_R.L.",35.1377532407408,-91.4378407407407,6
"172","Boyd_Annie Jewel",36.2640875,-92.63975,2
"173","Boyd_Bill_1910-1977",37.0497838768116,-87.3784871980677,46
"174","Boyd_Sandy",49.0983333333333,-77.5566666666667,12
"175","Boyens_Phyllis",38.59454375,-86.394875,8
"176","Boyle_Margaret",38.0379241319445,-111.981722222223,16
"177","Bradley_Jesse",31.4400923722222,-91.6290507198413,14
"178","Bradley_Sandy_1947-",38.3746131944445,-105.46188888889,4
"179","Brady_Paul",53,-8,1
"180","Brady_Rafe",38.042725,-86.5265,3
"181","Brand_Oscar",40.7397322916666,-86.4943958333334,8
"182","Brand_Oscar (liner notes)",41.4140875,-86.78975,2
"183","Brandon_Tom_1927-",51.5166666666666,-56.8599999999999,5
"184","Brassens_Georges",42.5,12.5,1
"185","Breaux_Amadee",35.4140875,-95.28975,4
"186","Breaux_Cleoma_d. 1940",35.8110038194444,-87.3529833333334,32
"187","Breaux_Clifford",35.4140875,-95.28975,2
"188","Breaux_Ophy",35.50805,-90.1298571428571,14
"189","Bremner_Charlie",54.611111111111,-2.80555555555557,3
"190","Brewer_Jim",39.7420794444444,-87.6315111111111,5
"191","Brewer_Kahle",37.7337244276094,-85.8468941144782,33
"192","Brice_Fanny",41.1803175925926,-82.528537037037,3
"193","Bridger_Bobby",33.6248546296297,-99.2400185185187,3
"194","Bridges_Charlie",37.8605601388889,-64.9943526388889,20
"195","Bridges_Lucius",34.3264922222222,-94.2474666666667,5
"196","Briggs_Anne_1944-",53.2777777777777,-1.47222222222223,3
"197","Britt_Elton_1917-1972",41.4362996527778,-92.7317430555556,8
"198","Britton_Maynard",39.065635,-83.0159,5
"199","Britton_Tim_1960-",44.8229127777778,-63.9789,5
"200","Brock_Dan",38.6640875,-91.78975,2
"201","Brock_Louise",38.6640875,-91.78975,2
"202","Brodeur_Arthur Gilchrist_1888-",38.4730585866667,-90.5034771477777,30
"203","Brooks_Michael",41.4140875,-86.78975,2
"204","Brooks_Samuel",31.4400923722222,-91.6290507198413,14
"205","Brookshire_Joyce",36.4140875,-91.03975,2
"206","Brown_Aaron",33.9003236322222,-91.2281282188889,10
"207","Brown_Buster",35.9140875,-93.16475,4
"208","Brown_Charles",36.4140875,-91.03975,2
"209","Brown_Durwood",37.3226260784314,-86.2185565424837,17
"210","Brown_Evan Javan",36.4140875,-91.03975,2
"211","Brown_Gabriel",36.7203373850575,-74.221044059387,58
"212","Brown_Henry",38.9848546296296,-93.7596481481481,3
"213","Brown_Herschel",35.578521875,-86.2599375,8
"214","Brown_James",44.1393037878788,-77.5633888888889,11
"215","Brown_Jimmie",39.2346694444444,-93.211037037037,6
"216","Brown_Joe Washington",35.4877190315193,-88.5388906274376,49
"217","Brown_Les_1912-",41.4140875,-86.78975,2
"218","Brown_Louis",36.4140875,-91.03975,12
"219","Brown_Milton",37.0079208068783,-88.3154009285715,42
"220","Brown_Noble B.",37.563211617284,-92.5785188641977,45
"221","Brown_Paul_1952-",41.7519915462963,-87.4873449212963,24
"222","Brown_Paula",36.8432805555557,-85.688351851852,3
"223","Brown_Ross_1909-",37.2093916666667,-87.6931666666667,3
"224","Brown_William",35.1832263888888,-92.0239888888889,6
"225","Bruce_Neely",41.1803175925926,-82.528537037037,3
"226","Bruce_Vin",35.4140875,-95.28975,14
"227","Bruch_Max",55.4166666666665,-3.70833333333335,2
"228","Bruck_Jerry",41.1803175925926,-82.528537037037,3
"229","Bruneau_Philippe_1934-2011",54,-90.5,2
"230","Bryan_Leonard",36.8303137152778,-81.9101835069445,16
"231","Bryan_Mamie",36.8303137152778,-81.9101835069445,16
"232","Bryant_T.M._Mrs.",36.7074425322997,-88.3088281266151,43
"233","Buckner_Elic",35.9547279239766,-88.6913478947369,19
"234","Buford_Jimmie",35.1377532407408,-91.4378407407407,6
"235","Bumble Bee Slim",35.5280172863799,-85.1171704775986,62
"236","Bumgarner_Samantha_1880-1960",38.8,-81,1
"237","Bundy_Winifred",43.3018027777777,-90.4126900462964,12
"238","Bunn_Ollie",37.65704375,-85.894875,4
"239","Burchett_Jack",38.6979216269841,-83.8704650793651,14
"240","Burckhart_Jacob",35.9833798611111,-86.2028483333334,20
"241","Burgaud_Pierre_1898-1993",47,2,1
"242","Burgos_Antonio_1943-",23.4464814814815,-103.303194444444,6
"243","Burke_Bessie",36.4140875,-91.03975,2
"244","Burleson_Hattie",37.6778621527778,-89.622888888889,8
"245","Burnett_Dick",37.9252926262626,-85.5141611161617,22
"246","Burnett_Richard",35.8361230555555,-85.5548111111111,10
"247","Burnette_Ranie",35.1377532407408,-91.4378407407407,6
"248","Burns_Jethro",40.5539611111111,-98.4411717171717,11
"249","Burr_Henry",40.542725,-84.8598333333333,3
"250","Burris_Gene",37.94286875,-84.980575,4
"251","Burroughs_Gene",37.2119125,-84.3203833333333,6
"252","Busby_Abraham",37.7143685286196,-109.291415478115,33
"253","Busby_Buzz",37.5253778787879,-89.9540228282828,22
"254","Busby_John",37.7143685286196,-109.291415478115,33
"255","Bush_Sam_1952-",37.6988824074073,-87.6118703703703,6
"256","Bushell_Garvin_1902-1991",36.2851146604938,-86.3055277777779,18
"257","Byrd_Charlie_1925-1999",39.3615875,-87.8080833333335,2
"258","Byrd_J.L.",36.8303137152778,-81.9101835069445,16
"259","Byrd_John_1908-",37.1167143185185,-88.2009917708333,24
"260","Byrne_Jerry",40.7359135416666,-79.1244236111112,8
"261","Cabrales_M.",23.4464814814815,-103.303194444444,6
"262","Cadman_Charles Wakefield_1881-1946",41.1803175925926,-82.528537037037,3
"263","Caeser_Durel",35.4140875,-95.28975,2
"264","Cage_Butch",35.4315057394636,-82.1973525057471,29
"265","Cagle_A. Marcus",34.3547156363636,-87.271512030303,11
"266","Cahan_Andy",41.7519915462963,-87.4873449212963,24
"267","Cahill_Eddie_1929-1985",44.8229127777778,-63.9789,5
"268","Cain_Paul",36.8310583333333,-94.296037037037,3
"269","Caldwell_Lola",37.7559492133333,-90.3519687216667,20
"270","Caldwell_Walter",37.7559492133333,-90.3519687216667,20
"271","Cale_J.J.",37.6640875,-98.28975,2
"272","Callahan_Gene_1932-",37.0574208333333,-105.118222222222,2
"273","Callahan_Homer",37.4047024074074,-85.928636734568,18
"274","Callahan_Walter",37.3226260784314,-86.2185565424837,17
"275","Camara_Alhaji Sait",9.92666666666667,-5.13222233333333,3
"276","Cameron_Isla",54.611111111111,-2.80555555555557,3
"277","Campbell_Booth",36.1641871447029,-95.5542293023256,43
"278","Campbell_Ian",53.4166666666665,-1.70833333333335,2
"279","Campbell_Maurice",44.1393037878788,-77.5633888888889,11
"280","Campbell_Sid",38.0804763888888,-84.9843194444445,12
"281","Campos_Innocent de",17,10,1
"282","Cannon_Gus_1883-1979",36.9818916666667,-91.5168703703703,6
"283","Canoy_Lola",35.9547279239766,-88.6913478947369,19
"284","Canoy_Tim",35.9547279239766,-88.6913478947369,19
"285","Cantú_Timoteo",37.1167143185185,-88.2009917708333,24
"286","Cantwell_Robert_1945-",38.9701836805556,-98.1753680555556,8
"287","Caplinger_Warren",39.2093916666667,-86.6931666666667,3
"288","Caranhac_Gilbert",47,2,1
"289","Carawan_Guy",38.2260583333333,-88.2765,12
"290","Carawan_Guy (liner notes)",34.8034657407407,-88.748351851852,3
"291","Carey_Bob",39.442725,-90.5265,3
"292","Carignan_Jean",49.4467923611111,-67.3330138888889,12
"293","Carlin_Bob",41.7519915462963,-87.4873449212963,24
"294","Carlisle_Cliff_1904-1983",37.18204375,-88.394875,8
"295","Carlisle_Irene",37.4098456078432,-106.759362071896,17
"296","Carlton_Gaither_1901-1972",37.8153418420257,-87.1488753858655,147
"297","Carlton_John",38.042725,-86.5265,3
"298","Carmack_Effie Marquess_1885-1974",38.0379241319445,-111.981722222223,16
"299","Carmichael_Buddy",49.0983333333333,-77.5566666666667,3
"300","Carpenter_Saul",39.2093916666667,-86.6931666666667,3
"301","Carr_Bill",36.7074425322997,-88.3088281266151,43
"302","Carr_Kwetch",35.4140875,-95.28975,2
"303","Carr_Leroy_1905-1935",39.4275993055556,-90.3643888888889,8
"304","Carrier_Ogdel",30.1247481482222,-93.0231816014815,15
"305","Carroll_Jeanne",40.5701324074074,-91.8191851851852,3
"306","Carroll_Tom",35.9547279239766,-88.6913478947369,19
"307","Carson_Fiddlin' John_1868-1949",36.3897126940476,-86.0702542113095,56
"308","Carter_Andrew",37.3226260784314,-86.2185565424837,17
"309","Carter_Buster",36.2697972222222,-87.3643888888889,9
"310","Carter_George",37.2269904385965,-86.7260505906433,19
"311","Carter_James",36.7760583333333,-87.0265,3
"312","Carter_Janette",36.78204375,-89.644875,4
"313","Carter_Jimmy_1924-",37.3226260784314,-86.2185565424837,17
"314","Carter_Jimmy_1924-_Carter_Jimmy_1924-",39.3615875,-87.8080833333335,2
"315","Carter_Maybelle_1909-1978",38.856618875502,-85.3156827309237,83
"316","Casey_Claude",37.542725,-86.8598333333333,3
"317","Cash_Johnny",37.625394117647,-96.0882843137255,17
"318","Cassadore_Philp",37.0574208333333,-105.118222222222,2
"319","Catalon_Inez",35.4140875,-95.28975,2
"320","Caudle_Harrison",36.8303137152778,-81.9101835069445,16
"321","Cauthen_Andrew",38.9848546296296,-93.7596481481481,3
"322","Ceaser_Durel",35.4140875,-95.28975,2
"323","Cephas_John",37.7414647264957,-86.1890373048433,39
"324","Chairetakis_Anna L.",41.6651928571429,-43.1655714285714,7
"325","Charles_Ray_1930-2004",38.4140875,-109.28975,2
"326","Charles_Roosevelt_1919-",31,-92,1
"327","Charters_Samuel Barclay_1929-2015",12.4411111666667,-8.19666666666667,6
"328","Chase_Richard_1904-1988",38.6640875,-91.78975,2
"329","Chatmon_Sam",37.096274382716,-90.9295864197531,9
"330","Chavis_Boozoo_1930-2001",35.4140875,-95.28975,2
"331","Chávez_Alex J._1922-",36.3042064814815,-103.743259259259,3
"332","Cheek_Florence",36.8303137152778,-81.9101835069445,16
"333","Chenier_Clifton_1925-1987",34.1559128472223,-95.8901944444445,8
"334","Chestian_Sonny",36.4140875,-91.03975,2
"335","Choates_Harry_1922-1951",36.7939212222222,-89.7412551111111,25
"336","Church of God in Christ (Lula_Ms.)",35.1832263888888,-92.0239888888889,6
"337","Churchill_Winston_1871-1947",53,-1,1
"338","Cisneros_Carol",33.6248546296297,-99.2400185185187,3
"339","Clancy_Bobby",53.2777777777777,-6.1388888888889,3
"340","Clancy_Willie",53,-8,1
"341","Clapton_Eric",53,-1,1
"342","Clark_Angie",35.504635,-89.9632333333334,5
"343","Clark_Eliot",38.4526916666667,-85.3528333333333,3
"344","Clark_Guy",34.2706201388889,-95.8509166666667,8
"345","Clark_Sam",36.9818916666667,-91.5168703703703,3
"346","Claunch_Earnest_1893-1958",37.4814553535353,-86.0279759343434,22
"347","Clayton_Paul_1931-1967",38.6640875,-91.78975,2
"348","Clear_Lindy",37.7559492133333,-90.3519687216667,20
"349","Clem_Harman",35.9547279239766,-88.6913478947369,19
"350","Clements_Vassar",37.6975993055556,-88.0884861111111,4
"351","Cleveland_Big Boy",37.4115069166667,-90.0704501111111,20
"352","Cleveland_Sara_1905-1987",43.7195851904762,-78.6058304126984,14
"353","Clifton_Bill",38.3042659722222,-85.3934861111112,12
"354","Cline_Charlie",38.6640875,-91.78975,2
"355","Cline_Curly Ray",38.696799074074,-86.766037037037,3
"356","Cline_Patsy_1932-1963",37.0713841666667,-99.4545666666666,10
"357","Cockerham_Fred_1905-1980",37.9018757911111,-84.1521225422222,25
"358","Cody_Betty",44.20704375,-89.144875,4
"359","Coen_Charlie_1934-",44.8229127777778,-63.9789,5
"360","Coen_Jack_1925-2012",44.8229127777778,-63.9789,5
"361","Coffee_James",37.56446875,-85.313,4
"362","Coffee_Lester A.",38.4818397888889,-91.6078638111113,50
"363","Coffey_O.L.",35.9547279239766,-88.6913478947369,19
"364","Cohen_John_1932-2019",38.8329994444444,-82.8296222222222,10
"365","Cohen_Norm_1936-",37.3226260784314,-86.2185565424837,17
"366","Cohn_Lawrence_1932-",36.2851146604938,-86.3055277777779,18
"367","Cohn_Lawrence_1932- (liner notes)",38.18079375,-85.6540416666668,4
"368","Cole_Calvin",35.9547279239766,-88.6913478947369,19
"369","Coleman_Austin",35.4877190315193,-88.5388906274376,49
"370","Coleman_Bernice",39.2093916666667,-86.6931666666667,3
"371","Coleman_Dutch",36.2956325918367,-82.5925839092971,49
"372","Coleman_Michael_1891-1945",53,-8,1
"373","Coleman_T. Michael",37.6640875,-89.28975,2
"374","Collier_Jimmy",40.5743916666667,-83.5387222222223,9
"375","Collins_Charlie",37.9140875,-92.28975,2
"376","Collins_Gus",44.8229127777778,-63.9789,5
"377","Collins_Judy_1939-",45.8808803030303,-64.9614242424242,11
"378","Collins_Kathleen",53,-8,1
"379","Colvin_Hiter",37.6760583333333,-88.7265,6
"380","Conder_Alvin",35.5611364616488,-87.4665111917563,31
"381","Connell_Dudley",38.7760583333333,-84.7598333333333,3
"382","Conway_Archie",37.9860192657005,-82.6719866135266,23
"383","Conway_Brian",44.8229127777778,-63.9789,5
"384","Cook County Singing Convention (Chicago_Ill.)",40.5701324074074,-91.8191851851852,3
"385","Cooke_Jack_1936-2009",39.8807541666665,-92.3980833333335,2
"386","Cooke_Peter",54.611111111111,-2.80555555555557,3
"387","Cooley_Joe",53.4166666666665,-5.20833333333335,2
"388","Cooley_Seamus_1929-1997",53,-8,1
"389","Cooper_Clarence",39.442725,-84.5265,3
"390","Cooper_Gwendolyn",37.8605601388889,-64.9943526388889,20
"391","Cooper_Stoney_1918-1977",38.1626144444444,-87.8671472222222,10
"392","Cooper_Wilma Lee_1921-2011",38.6640875,-88.78975,6
"393","Copeland_Leonard",39.2093916666667,-86.6931666666667,3
"394","Copper_Bob",53.4166666666665,-1.70833333333335,2
"395","Copper_Ron",53.4166666666665,-1.70833333333335,2
"396","Coquille_Walter",35.4140875,-95.28975,2
"397","Corley_Dewey_1898-1974",36.9818916666667,-91.5168703703703,3
"398","Corte_Jules de",52.316666666667,5.55,1
"399","Cotten_Elizabeth",39.6051999509804,-76.3259271568628,34
"400","Cottrell_Jenes",38.4663631313131,-83.1632929292929,11
"401","Cottrell_Noah",39.7760583333333,-87.1931666666667,3
"402","Courville_Sady",36.9999564251208,-75.4185042028986,23
"403","Cowley_John",36.4140875,-91.03975,2
"404","Cox_Bill_1897-1968",37.9487104166667,-86.9782083333333,12
"405","Craik_Maureen",53.4166666666665,-1.70833333333335,2
"406","Crain_S.R.",37.8605601388889,-64.9943526388889,20
"407","Crandall_Myron R.",38.0379241319445,-111.981722222223,16
"408","Cranford_Bob",38.3416739814814,-85.304378712963,12
"409","Cranford_Miles & Thompson",38.3416739814814,-85.304378712963,12
"410","Crank_Tommy",38.7093916666667,-88.1931666666667,3
"411","Creed_Kyle",38.3760583333333,-86.3598333333333,6
"412","Crisp_Palmer",35.9977220679013,-94.415235,36
"413","Crisp_Rufus",36.6353093572985,-92.7675853594771,51
"414","Crochet_Cleveland",35.4140875,-95.28975,2
"415","Crockett_George_musician",38.3416739814814,-85.304378712963,12
"416","Cronin_Paddy",44.8229127777778,-63.9789,5
"417","Crook_Howard",41.1803175925926,-82.528537037037,3
"418","Crosby_Will",31.4400923722222,-91.6290507198413,14
"419","Cross Roads Primitive Baptist Church (Baywood_Va.)",36.8303137152778,-81.9101835069445,16
"420","Crowe_J.D.",38.6640875,-91.78975,2
"421","Crudup_Arthur_1905-1974",37.6778621527778,-89.622888888889,8
"422","Cruise_Michael",37.8835794444445,-88.138483420139,32
"423","Cruz_C.",23.4464814814815,-103.303194444444,6
"424","Cruz_J. de la",23.4464814814815,-103.303194444444,6
"425","Cuffee_Ed_1902-1959",36.2851146604938,-86.3055277777779,18
"426","Currie_Peter",49.0983333333333,-77.5566666666667,3
"427","Daffan_Ted",36.7939212222222,-89.7412551111111,25
"428","Daglish_Malcolm",39.8093916666667,-88.5306666666667,3
"429","Dalhart_Vernon_1883-1948",36.4953752666666,-88.2719400933333,25
"430","Dalton_Frank",35.9547279239766,-88.6913478947369,19
"431","Damron_Allen Wayne",33.6248546296297,-99.2400185185187,3
"432","Daniel_M.",23.4464814814815,-103.303194444444,6
"433","Darbone_Luderin_1913-2008",36.7939212222222,-89.7412551111111,25
"434","Darby_Tom_1890-ca. 1971",36.8897014404938,-88.2765885676543,45
"435","Dardashti_Farid",32,53,1
"436","Darling_Erik",39.442725,-90.5265,3
"437","Darlington_Sandy",42.442725,-97.8598333333333,3
"438","Davenport_Bob",49.3996032051282,-40.2625256410256,13
"439","Davenport_Cow Cow_1894-1955",37.3488928888889,-73.9275921867613,47
"440","David_Jean",47,2,1
"441","David_Kayah",36.0382805555556,-105.412148148148,3
"442","David_Lloyd",40.38927,-90.2464666666668,5
"443","Davidenko_Joseph",37.4115069166667,-90.0704501111111,20
"444","Davidson_Ken_1941-2016 (liner notes)",39.2093916666667,-86.6931666666667,3
"445","Davis_Art",36.2851146604938,-86.3055277777779,18
"446","Davis_Cora",36.7074425322997,-88.3088281266151,43
"447","Davis_Eva",38.8,-81,1
"448","Davis_Fred_Mrs.",40.903650925926,-81.3204814814813,3
"449","Davis_Gary_1896-1972",37.1163109211469,-86.2139502437277,31
"450","Davis_Genevieve_1889-1950",38.8220742592593,-76.1762329012346,27
"451","Davis_George_1906-1992",37.9860192657005,-82.6719866135266,23
"452","Davis_Jerome",36.4140875,-91.03975,4
"453","Davis_Jimmie_1899-2000",36.5589168757575,-87.2225684936869,44
"454","Davis_John",36.4712407894737,-90.4060789473684,19
"455","Davis_Karl_1905-1979",38.7093916666667,-88.1931666666667,3
"456","Davis_Mary",36.7074425322997,-88.3088281266151,43
"457","Dazen_David",36.0382805555556,-105.412148148148,3
"458","De La Torre_M.",23.4464814814815,-103.303194444444,6
"459","De Noyer_Emery",43.3018027777777,-90.4126900462964,12
"460","DeMarco_Tony",44.8229127777778,-63.9789,5
"461","DeVille_Aubrey",35.4140875,-95.28975,4
"462","Dees_David",37.2119125,-84.3203833333333,12
"463","Dele_Julia",36.0382805555556,-105.412148148148,3
"464","Delmore_Alton",36.8696645372222,-88.2774085275,40
"465","Delmore_Rabon_1916-1952",37.7559492133333,-90.3519687216667,20
"466","Dennis_Wash",32.8181777011696,-91.3311367233918,19
"467","Denoon_Jim",36.1641871447029,-95.5542293023256,43
"468","Denoon_Johnny",37.4098456078432,-106.759362071896,17
"469","Denoon_Ray",37.7559492133333,-90.3519687216667,20
"470","Denson_Howard",34.3547156363636,-87.271512030303,11
"471","Denson_Paine_1885-1955",34.3547156363636,-87.271512030303,11
"472","Dereskeviciene_Juze_Mrs.",35.5611364616488,-87.4665111917563,31
"473","Destiné_Jean Léon",19,-72.8,1
"474","Devall_Dick",35.9977220679013,-94.415235,36
"475","Dickens_Hazel_1935-2011",38.4879261641414,-84.7467004873738,44
"476","Diez_Barbarito_1909-1995",22,-79.5,1
"477","Diller_Dwight",39.4140875,-89.53975,2
"478","Dilleshaw_John",36.0688308888889,-87.0852142222223,25
"479","Dillingham_J.D.",35.504635,-89.9632333333334,5
"480","Dillon_John W.",36.9091926878307,-85.8555631693122,21
"481","Dinwiddie_Wayne",38.1655188518518,-88.813226222222,30
"482","Dixon_Dorsey_1897-1968",38.1481813131313,-83.1178383838384,11
"483","Dixon_Samuel Clay",35.504635,-89.9632333333334,5
"484","Dizz_Lefty",38.2367064814815,-92.0690925925926,3
"485","Díaz_Joaquín",40.2,-3.5,9
"486","Dobbins_Joe_1901-1970",36.9818916666667,-91.5168703703703,3
"487","Dodds_Johnny_1892-1940",33.6014287037037,-93.5526111111111,3
"488","Doherty_Jack",53,-8,1
"489","Dolan_Jimmy",39.3905196972222,-82.2562881329861,32
"490","Dolphy_Eric",38.4140875,-109.28975,2
"491","Domino_Fats_1928-2017",33.6014287037037,-93.5526111111111,3
"492","Doonan_John",53,-8,1
"493","Dorschug_Doug_1946-",38.2093916666667,-88.5265,3
"494","Dorsey_Guy",36.4140875,-91.03975,2
"495","Doss_Willie",37.1658075942029,-85.3440416328503,23
"496","Doucet_Michael",35.4140875,-95.28975,2
"497","Downer_James T.",37.9860192657005,-82.6719866135266,23
"498","Doyle_Little Buddy",35.8562242459017,-86.2065334826958,61
"499","Dranes_Arizona",37.1784285407407,-86.7704681,30
"500","Dransfield_Barry",53.4166666666665,-1.70833333333335,2
"501","Draper_Teddy",36.0382805555556,-105.412148148148,3
"502","Drapkin_Livia",41.9140875,-85.63975,2
"503","Draugh_Ella",36.8303137152778,-81.9101835069445,16
"504","Driftwood_Jimmie",37.3140875,-95.38975,2
"505","Dudgeon_Frank",39.2093916666667,-86.6931666666667,3
"506","Duffey_John",39.1410067410431,-83.2799840868481,49
"507","Duffy_J.F.",36.4140875,-91.03975,2
"508","Dugan_Patti",41.4140875,-86.78975,2
"509","Duke of Iron",36.3072646388888,-86.5571569444444,20
"510","Duncan_Tommy",36.7939212222222,-89.7412551111111,25
"511","Dunford_Uncle Eck_1878-1953",36.7494069074074,-77.7248213838384,66
"512","Dupree_Champion Jack_-1992",38.4251072222222,-89.0562611111112,10
"513","Dusenbury_Emma_1862-1941",36.982008079096,-88.783543896422,59
"514","Dutertre_Jean-Francois",47,2,1
"515","Dutrey_Honore_1894-1935",33.6014287037037,-93.5526111111111,3
"516","Duvelle_Charles",10.0980692121212,9.31556190909091,11
"517","Dye_John M.",34.3547156363636,-87.271512030303,11
"518","Dykes_John",37.542725,-86.8598333333333,3
"519","Dylan_Bob_1941-",41.3503320707071,-85.627601010101,11
"520","Eaglin_Snooks_1936-2009",35.4140875,-95.28975,2
"521","Eanes_Jim",38.3042659722222,-85.3934861111112,12
"522","Earle_Eugene",38.237410483871,-84.5671272401434,31
"523","Earle_Steve",33.6248546296297,-99.2400185185187,3
"524","East_Ernest",37.90704375,-84.644875,4
"525","Edmondson_Dian",41.4140875,-86.78975,8
"526","Edwards_Billy",37.94286875,-84.980575,4
"527","Edwards_Honeyboy",36.0478711965811,-87.8187335470085,26
"528","Egan_Seamus_1970-",44.3435847222222,-56.7104777777778,6
"529","El Din_Hamza",35.003521875,-45.3849375,8
"530","El-Dabh_Halim_1921-",27,29,3
"531","Eller_Vaughn",37.2093916666667,-87.6931666666667,3
"532","Ellington_Duke_1899-1974",39.3615875,-87.8080833333335,2
"533","Elliott_Jack_1931-",42.5930273809524,-76.278119047619,14
"534","Ellis_Charles",36.4140875,-91.03975,2
"535","Ellis_Wilbert_1914-1977",39.3905196972222,-82.2562881329861,32
"536","Elvin_Bill",54.611111111111,-2.80555555555557,3
"537","Ely_Claude",37.1784285407407,-86.7704681,30
"538","Emanuel_Leonard_1904-1982",39.2020794444444,-87.2915111111111,5
"539","Emerson_Bill",38.0108539855072,-84.6294362318841,23
"540","Emmy_Cousin_1903-1980",38.6640875,-91.78975,4
"541","Emrich_Duncan_1908-1977",38.5344483524904,-93.5404907662834,29
"542","English_Logan",41.4140875,-86.78975,2
"543","Enis_Marvin_1956-",35.9157896551724,-86.195649329502,29
"544","Enis_Mike_1936-",35.9157896551724,-86.195649329502,29
"545","Ennis_Seamus",40.4353734375,-66.2195847222223,16
"546","Essafi_Wadih",33.833333,35.766667,2
"547","Estes_Red Buck",37.7559492133333,-90.3519687216667,20
"548","Estes_Sleepy John_1899-1977",36.6176115347222,-85.8137014467593,48
"549","Et-o_Kimio_1924-",35,136,1
"550","Etting_Ruth_1907-1978",41.1803175925926,-82.528537037037,3
"551","Eva_Betty",37.1784285407407,-86.7704681,30
"552","Evans_Butch",36.4140875,-91.03975,2
"553","Evans_Harry M._1925-2004",39.1999472222223,-83.783351851852,3
"554","Evans_John B.",39.2093916666667,-86.6931666666667,3
"555","Everheart_Clay",35.8361230555555,-85.5548111111111,10
"556","Everidge_Charlie_1894-1969",37.7559492133333,-90.3519687216667,20
"557","Ewitt_Don",39.3615875,-87.8080833333335,2
"558","Ezell_Buster Buzz",36.4140875,-91.03975,2
"559","Fadden_Jimmie",37.6975993055556,-88.0884861111111,4
"560","Fahey_John_1939-2001",39.2686509259259,-84.0956666666667,3
"561","Falcon_Joe_1900-1965",35.7876558006536,-87.8198519607843,34
"562","Fariña_Mimi",41.4140875,-86.78975,2
"563","Fariña_Richard",41.4140875,-86.78975,2
"564","Farmer_Mary Franklin",36.7074425322997,-88.3088281266151,43
"565","Farwell_Arthur_1872-1952.",41.1803175925926,-82.528537037037,3
"566","Favor_Dudley",35.4140875,-95.28975,2
"567","Favor_James",35.4140875,-95.28975,2
"568","Fayr-uz",33.833333,35.766667,5
"569","Feintuch_Burt_1949-",38.7093916666667,-88.1931666666667,3
"570","Feis_Pasquale",37.5486165277778,-83.1656694444445,20
"571","Feliciano_José",39.205635,-82.2159,5
"572","Felton_Ron",38.4140875,-109.28975,2
"573","Fernandez_Joseito",22.5683333333335,-80.9294444444445,2
"574","Fernandez_Rosita_1918-",33.417725,-99.024462962963,3
"575","Fikes_Betty Mae",38.2367064814815,-92.0690925925926,3
"576","Firk_Backwards Sam",39.0053407407407,-92.4395324074074,12
"577","Fisher_Ray",53,-1,1
"578","Fitzpatrick_John",44.8229127777778,-63.9789,5
"579","Fitzpatrick_Maureen",44.8229127777778,-63.9789,5
"580","Flagel_Claude",47,2,1
"581","Flatt_Lester",36.1756316960784,-85.1364591568628,68
"582","Flippen_Benton",41.7519915462963,-87.4873449212963,24
"583","Flowers_Willy",35.9157896551724,-86.195649329502,29
"584","Flynn_Michael",44.8229127777778,-63.9789,5
"585","Fontenot_Bee_b. 1906",35.4140875,-95.28975,2
"586","Fontenot_Canray",35.4140875,-95.28975,4
"587","Fontenot_George",35.4140875,-95.28975,2
"588","Fontenot_Harry",35.4140875,-95.28975,2
"589","Fontenot_Isom J.",35.4140875,-95.28975,8
"590","Forbes_Anthony and Will",41.2038723333333,-80.3791027666667,3
"591","Ford_Oscar",36.3072646388888,-86.5571569444444,20
"592","Ford_Warde H._1906-1979",37.19858204884,-92.3808049096462,91
"593","Forehand_Mamie",37.5486165277778,-83.1656694444445,20
"594","Forrest_Helen",41.4140875,-86.78975,2
"595","Forrester_Howdy_1922-1987",38.09127,-90.0318,5
"596","Foster_Garley",36.6183194444444,-84.5782777777778,9
"597","Foster_Gwen_musician",37.3226260784314,-86.2185565424837,17
"598","Foster_John",37.525635,-84.9159,5
"599","Fowler_J.C.",35.9547279239766,-88.6913478947369,19
"600","Fox_Curly",35.6093916666667,-94.8598333333333,3
"601","Fraley_Annadeene",38.6640875,-91.78975,2
"602","Fraley_J. P.",38.6640875,-91.78975,2
"603","Franklin_C. L. (Clarence LaVaughn)_1915-1984",42.166613888889,-89.069,3
"604","Franklin_E.F.",36.2640875,-92.63975,2
"605","Fraser_Willie",54.611111111111,-2.80555555555557,3
"606","Freeman_David",37.6208969444444,-89.5487388888889,10
"607","Freeman_Isaac_(Singer)",37.8605601388889,-64.9943526388889,20
"608","Frisbie_David R._1944-",44.588075,-110.711833333334,5
"609","Frizzell_Lefty_1928-1975",37.0713841666667,-99.4545666666666,10
"610","Fromholz_Steven",33.6248546296297,-99.2400185185187,3
"611","Frost_George",39.4140875,-87.03975,2
"612","Frost_Irma",37.3226260784314,-86.2185565424837,17
"613","Fruge_Columbus",35.4140875,-95.28975,2
"614","Frugé_Ernest",35.9833798611111,-86.2028483333334,20
"615","Fuller_Blind Boy_1909-1941",36.4230119444444,-86.6039500000001,20
"616","Fuller_Jesse",37.6713625,-70.1799166666667,6
"617","Furey_Eddie",53,-8,2
"618","Furey_Finbar",53,-8,2
"619","Fusilier_Roy",35.4140875,-95.28975,2
"620","Gallagher_Ed",41.1803175925926,-82.528537037037,3
"621","Galt_Nellie",36.9091926878307,-85.8555631693122,21
"622","Ganapatim_Vatapi",22.8,83,1
"623","Garcia_Saludado_and Saludado (Musical group)",38.4140875,-109.28975,2
"624","Gardner_Denise",36.7760583333333,-87.0265,3
"625","Gardner_Gail I._1892-1988",35.5611364616488,-87.4665111917563,31
"626","Gardner_Mattie",36.7760583333333,-87.0265,3
"627","Gardner_Robert",38.03204375,-87.644875,4
"628","Gaspard_Blind Uncle_1880-1937",35.4140875,-95.28975,2
"629","Gaughan_Dick",53.4166666666665,-1.70833333333335,2
"630","Gauthier_Claude",47,2,1
"631","Gazzelloni_Severino",35,136,1
"632","Gellert_Dan",41.7519915462963,-87.4873449212963,24
"633","Gellert_Lawrence_1898-1979",35.58204375,-85.769875,4
"634","Gentle_J.C.",44.588075,-110.711833333334,5
"635","Geraty_Virginia Mixson",35.5371694444444,-86.5038148148148,3
"636","Geron_S.",23.4464814814815,-103.303194444444,6
"637","Gerrard_Alice_1934-",40.4358080527778,-86.0408694527778,40
"638","Gevedon_Monroe",36.7074425322997,-88.3088281266151,43
"639","Gibson_Don (Donald Eugene)_1928-2003",41.4362996527778,-92.7317430555556,8
"640","Gibson_Gus",36.4140875,-91.03975,2
"641","Gilbert_Kay_musician",44.1393037878788,-77.5633888888889,11
"642","Gilbert_Ronnie",39.5390875,-92.53975,4
"643","Gilbert_Stella",37.2933955,-84.6265765833333,12
"644","Gill_Geula",37.942725,-46.1931666666667,3
"645","Gillespie_Dizzy_1917-1993",39.3615875,-87.8080833333335,4
"646","Gillis_Angus R.",49.0983333333333,-77.5566666666667,3
"647","Gillis_Lorraine",49.0983333333333,-77.5566666666667,3
"648","Gillum_Francis",35.9833798611111,-86.2028483333334,20
"649","Gilmer_Will",36.7713625,-85.6799166666667,6
"650","Gimble_Johnny",36.9039017241379,-89.1249344827586,29
"651","Givens_W.M. (Billy)",36.9091926878307,-85.8555631693122,21
"652","Gladden_Texas_1895-1966",37.077557,-83.1072780444444,10
"653","Glancy_Joe",37.9860192657005,-82.6719866135266,23
"654","Glassie_Henry H.",39.3615875,-87.8080833333335,2
"655","Glover_Tony",43.6033731481482,-95.2828888888889,3
"656","Golden_Jack_1874-1955",41.1803175925926,-82.528537037037,3
"657","Goldstein_Kenneth S._1927-1995",40.0589938492063,-77.4227103174603,14
"658","Gonzales_Aurora",30.1247481482222,-93.0231816014815,15
"659","Gonzales_Covita",35.504635,-89.9632333333334,5
"660","Gonzales_Josephine",30.1247481482222,-93.0231816014815,15
"661","Gonzales_P.",23.4464814814815,-103.303194444444,6
"662","González_Alicia María",35.504635,-89.9632333333334,5
"663","Gooding_Cynthia",23,-102,1
"664","Goodman_Don",37.0574208333333,-105.118222222222,2
"665","Goodson_Pete",36.2640875,-92.63975,2
"666","Goodwin_John",37.152625,-86.7506666666667,3
"667","Gordeanna McCulloch_Norman Kennedy and the Exiles",54.611111111111,-2.80555555555557,3
"668","Gordon_Robert Winslow",36.9091926878307,-85.8555631693122,21
"669","Gorman_Michael_1895-1970",51.19047260101,-14.5661893939394,22
"670","Graham_Billy_1918-2018",37.8605601388889,-64.9943526388889,20
"671","Graham_J. W.",35.9157896551724,-86.195649329502,29
"672","Graham_Walter",38.8,-81,1
"673","Grainger_Ross",-25,133,1
"674","Grappelli_Stéphane",47.9283333333333,2.17611111111111,2
"675","Gray_Henry_1925-2020",35.4140875,-95.28975,2
"676","Grayson_G.B.",36.8735875873016,-86.1545869873016,70
"677","Grayson_Shannon",38.7760583333333,-88.0265,3
"678","Green_Archie",37,-120,1
"679","Green_Archie (liner notes)",35.8895599444444,-86.0484605611111,20
"680","Green_Joe",33.9003236322222,-91.2281282188889,10
"681","Greene_Alva",35.9833798611111,-86.2028483333334,20
"682","Greene_Clarence",36.730815625,-84.64275,16
"683","Greene_Richard_violinist",39.1855076666666,-86.7119737777778,25
"684","Greer_Dolly",37.8621469444444,-86.0250722222222,20
"685","Greer_Dwight",38.042725,-86.5265,6
"686","Greer_I. G. (Isaac Garfield)_1881-1967",37.077557,-83.1072780444444,10
"687","Greer_I.G._Mrs.",37.077557,-83.1072780444444,10
"688","Greer_Jim",40.194125,-88.279,3
"689","Greer_Sophronie Miller",37.591279861111,-85.2729305555555,8
"690","Greer_Taft_1903-1986",37.6640875,-89.28975,14
"691","Greer_Tina",37.7847563492063,-85.8101746031746,14
"692","Grenell_Horace_1909-1981",41.1803175925926,-82.528537037037,3
"693","Grier_Lamar",38.4521816666666,-85.7345733333334,10
"694","Griffin_G.A._Mrs.",36.982008079096,-88.783543896422,59
"695","Griffin_Sin-Killer",33.9003236322222,-91.2281282188889,10
"696","Grisman_David",37.8862001322751,-98.0259074074076,21
"697","Grover_Carrie B.",37.7648468300653,-89.3169104662309,51
"698","Growling Tiger (Calypso singer)_1915-1993",35.4315057394636,-82.1973525057471,29
"699","Grupo Pescadores",22,-79.5,1
"700","Gude. David_1940-",41.4140875,-86.78975,2
"701","Guidry_Sabry",35.504635,-89.9632333333334,5
"702","Guillette_Wilfred",43.8789083333334,-78.3412412698413,14
"703","Guinakri_Rag",22.8,83,1
"704","Gunning_Sarah Ogan_1910-1983",37.1606305555556,-84.5542037037037,18
"705","Guthrie_Arlo",37.6640875,-98.28975,2
"706","Guthrie_Woody_1912-1967",38.8366079501916,-89.6199406130268,29
"707","Guy_Jack",38.042725,-86.5265,3
"708","Guzman_A.",23.4464814814815,-103.303194444444,6
"709","H-afiz_`Abd al-Hal-im",33.833333,35.766667,1
"710","Haggard_Merle",37.0713841666667,-99.4545666666666,10
"711","Hai et Yen",16,108,1
"712","Hale_Theron",37.6975993055556,-88.0884861111111,4
"713","Haley_Ed_1883-1951",38.7093916666667,-88.1931666666667,3
"714","Hall_Ellis",39.2093916666667,-86.6931666666667,3
"715","Hall_Kenny_(Musician)",39.2385583333333,-105.379740740741,6
"716","Hall_Vera_1906-1964",33.794593584985,-90.7694201783784,37
"717","Halley_Will",38.9186365555556,-97.1658582222222,5
"718","Halluri_Audu Janar",10.0980692121212,9.31556190909091,11
"719","Halpert_Herbert",37.3552371180555,-85.11525784375,32
"720","Hamilton_Diane_1925-1991",49.0983333333333,-77.5566666666667,9
"721","Hamilton_Frank_1934-",38.7093916666667,-86.1931666666667,3
"722","Hamilton_George_1937-2014",37.6640875,-89.28975,2
"723","Hamilton_Goldie",37.7559492133333,-90.3519687216667,20
"724","Hamilton_Ward",39.3615875,-87.8080833333335,2
"725","Hammond_David_singer",44.2849237179487,-46.3991068376068,13
"726","Hammond_John",38.7093916666667,-88.1931666666667,3
"727","Hammond_John _1942-",40.7640875,-85.03975,2
"728","Hammons_Burl_1908-1993",39.4140875,-89.53975,2
"729","Hammons_Sherman_1903-1988",39.4140875,-89.53975,2
"730","Hampton_Nell",35.504635,-89.9632333333334,5
"731","Hankins_Harry",36.9597462134503,-91.9852871052633,38
"732","Hanly_Mick",53,-8,1
"733","Hanna_Jeff",37.6975993055556,-88.0884861111111,4
"734","Haozous_Blossom",36.0382805555556,-105.412148148148,3
"735","Haozous_Sam",36.0382805555556,-105.412148148148,3
"736","Harba_Abou",33.833333,35.766667,2
"737","Hardy_Lyn",42.2760583333333,-82.0931666666667,3
"738","Hare_Marie",51.3,-87.5,2
"739","Harkreader_Sidney J.",37.9169388888889,-88.2762063492063,7
"740","Harmon_Austin",36.9597462134503,-91.9852871052633,38
"741","Harmon_Robert_1920-1999",37.7694357142857,-85.8330714285714,7
"742","Harmon_Samuel",36.9928472988506,-88.8068036398469,58
"743","Harney_Ben",36.9091926878307,-85.8555631693122,21
"744","Harold_Richard",39.2093916666667,-86.6931666666667,3
"745","Harper_Oscar",35.9547279239766,-88.6913478947369,19
"746","Harpo_Slim_1924-1970",35.4140875,-96.28975,8
"747","Harrell_Bill",38.6640875,-88.78975,2
"748","Harrell_Kelly_1889-1942",37.6585631578947,-85.5693684210526,19
"749","Harris_Bill_1925-1988",39.3615875,-87.8080833333335,6
"750","Harris_Emmylou",39.0871694444443,-89.9320555555557,3
"751","Harris_Frank",38.9186365555556,-97.1658582222222,5
"752","Harris_Joe",36.9597462134503,-91.9852871052633,38
"753","Harris_R.H.",37.8605601388889,-64.9943526388889,20
"754","Harris_Sam",36.2851146604938,-86.3055277777779,18
"755","Hart_Charles",41.4140875,-86.78975,2
"756","Hart_Mickey",38.4140875,-109.28975,2
"757","Harter_George",37.2681201666667,-87.1369341623932,26
"758","Hartford_John",37.6844363636364,-90.7092636363636,22
"759","Harton_Curtis",36.0950183441077,-85.7861513185185,33
"760","Harvey_Morton",41.4140875,-86.78975,2
"761","Harvey_Roy",37.2825881444444,-86.1506592244445,50
"762","Harvey_Tom",35.0005916666667,-92.4671333333333,3
"763","Hasse_John Edward_1948-",39.8807541666665,-92.3980833333335,4
"764","Hatcher_John",37.8835794444445,-88.138483420139,32
"765","Hausenfluck_Harold",37.3677707777778,-85.9548695555556,5
"766","Havens_Richie",41.4140875,-86.78975,4
"767","Hawes_Bess Lomax_1921-2009",39.442725,-90.5265,3
"768","Hawes_Butch_1919-1971",39.442725,-90.5265,3
"769","Hawkins_Ezra",35.9289905092592,-86.9640194444445,24
"770","Hawkins_Hawkshaw_1921-1963",44.20704375,-89.144875,4
"771","Hawks_Rayar",36.7074425322997,-88.3088281266151,43
"772","Hayes_Clifford",38.8220742592593,-76.1762329012346,27
"773","Hayes_Napoleon",36.410635,-90.6146777777778,5
"774","Hayes_Roland_1887-1977",36.7760583333333,-87.0265,3
"775","Hays_Lee_1914-1981",41.4140875,-86.78975,2
"776","Hazel_Sam",31.4400923722222,-91.6290507198413,14
"777","Heaney_Joe_1919-1984",48.2710913194444,-33.7279583333333,8
"778","Hearne_Bill",33.6248546296297,-99.2400185185187,3
"779","Hearne_Bonnie",33.6248546296297,-99.2400185185187,3
"780","Hebert_Adam_1923-2010",35.4140875,-95.28975,8
"781","Hebert_Didier",35.80224309375,-86.2163972465278,32
"782","Heilbut_Anthony",37.8605601388889,-64.9943526388889,20
"783","Helaire_Nonc",35.4140875,-95.28975,2
"784","Helmes_Bill",37.2093916666667,-87.6931666666667,3
"785","Hembree_Mark",38.6640875,-91.78975,2
"786","Hemphill_Sid_1876-1963",35.1377532407408,-91.4378407407407,6
"787","Henderson_Hamish (liner notes)",54.611111111111,-2.80555555555557,3
"788","Henderson_Lee",37.2093916666667,-87.6931666666667,3
"789","Henderson_Red",38.3416739814814,-85.304378712963,12
"790","Hendley_Fisher_d. 1964",39.3726251609428,-82.2182187956228,33
"791","Henry Joe",52.8351388888887,-2.88604166666668,4
"792","Hensley_Larry",39.2093916666667,-86.6931666666667,3
"793","Herald_John",41.4471764736842,-86.1227894736842,19
"794","Herdman_Curly_1918-1968",40.1640875,-90.53975,2
"795","Hester_Carolyn",33.6248546296297,-99.2400185185187,3
"796","Hewell_Harold",36.4140875,-91.03975,2
"797","Hickerson_Joseph Charles_1935-",39.1667916666667,-84.0992,3
"798","Hickok_Elgia",36.5723479166667,-84.4882916666667,12
"799","Hicks_Bobby",38.6903770833333,-87.1990416666667,4
"800","Higginbotham_Linda",41.7519915462963,-87.4873449212963,24
"801","Higgins_Jess B.",36.8303137152778,-81.9101835069445,16
"802","Higgins_Lizzie_1929-",54.611111111111,-2.80555555555557,3
"803","Higgins_Quincy",36.8303137152778,-81.9101835069445,16
"804","Hill_Clyde",32.8181777011696,-91.3311367233918,19
"805","Hill_Eddie",44.20704375,-89.144875,4
"806","Hines_Earl_1903-1983",39.3615875,-87.8080833333335,4
"807","Hinson_Glenn (liner notes)",37.6640875,-89.28975,2
"808","Hinton_Sam_1917-2009",38.1655188518518,-88.813226222222,30
"809","Hinton_W. A.",38.8,-81,1
"810","Hobbs_Cliff",36.6880291666667,-87.26325,6
"811","Hofner_Adolph",35.9157896551724,-86.195649329502,29
"812","Hofpauir_Elida",30.1247481482222,-93.0231816014815,15
"813","Hofpauir_Julien",30.1247481482222,-93.0231816014815,15
"814","Hogg_Smokey_1914-1960",37.6778621527778,-89.622888888889,8
"815","Holbert_Jim",36.9597462134503,-91.9852871052633,38
"816","Holcomb_Roscoe",41.5635714912281,-70.8015,19
"817","Holland_Travis",33.6248546296297,-99.2400185185187,3
"818","Holly_A.B.",36.9091926878307,-85.8555631693122,21
"819","Holly_Buddy_1936-1959",34.8043916666667,-100.1415,3
"820","Holman_Libby",41.1803175925926,-82.528537037037,3
"821","Holt_David",41.1670585396825,-87.138628968254,28
"822","Holt_Will",37.942725,-46.1931666666667,3
"823","Holyoak_Van",37.0574208333333,-105.118222222222,2
"824","Honig_Peter",41.7519915462963,-87.4873449212963,24
"825","Hooker_John Lee",38.2671980512821,-86.0871505811966,13
"826","Hooper_Cecil_Rev.",36.8303137152778,-81.9101835069445,16
"827","Hopkins_Albert",38.2093916666667,-88.5265,3
"828","Hopkins_Bill",37.53204375,-86.394875,4
"829","Hopkins_Lightnin'_1912-1982",37.4441211282052,-88.2794582735043,13
"830","Hornsby_R.M.",34.3547156363636,-87.271512030303,11
"831","Horton_Myles_1905-1990",35.94634375,-87.866475,8
"832","Houdini_Wilmoth_1895-1973",36.6144212962963,-77.3841499273505,78
"833","House_Son",37.4304042169312,-87.7327752275132,21
"834","Houston_Cisco",38.7367387847222,-92.9920836111111,16
"835","Houston_Dave",33.6248546296297,-99.2400185185187,3
"836","Hovington_Frank",36.9903468910394,-76.6458117143369,62
"837","Howard_Clint_1930-2011",38.5942129719029,-87.7432259712644,87
"838","Howard_Mark",37.9140875,-92.28975,2
"839","Howell_Peg Leg_1888-1966",36.4140875,-91.03975,2
"840","Hubbard_Ray Wylie",33.6248546296297,-99.2400185185187,3
"841","Hubbard_Willie_1931-",31.4400923722222,-91.6290507198413,14
"842","Huckaby_William",41.1803175925926,-82.528537037037,3
"843","Hughes_Lena",35.9833798611111,-86.2028483333334,20
"844","Hulan_Richard H.",39.3615875,-87.8080833333335,2
"845","Humeniuk_Pawlo.",39.3905196972222,-82.2562881329861,32
"846","Humes_James",36.0382805555556,-105.412148148148,3
"847","Humphrey_J.J._Mrs.",36.2640875,-92.63975,2
"848","Hunt_J. M",38.2395247222222,-87.521262829861,32
"849","Hunt_Marjorie_1954-",39.3615875,-87.8080833333335,2
"850","Huntington_Gale",44.1393037878788,-77.5633888888889,11
"851","Hurt_Mississippi John_1894-1966",37.5023962020202,-85.1657687474748,33
"852","Huskey_Junior",37.6975993055556,-88.0884861111111,4
"853","Hutchison_Frank_1897-1945",37.6547483333333,-85.4242333333333,15
"854","Hutton_Bruce",39.2686509259259,-84.0956666666667,3
"855","Hyman_Judy",41.7519915462963,-87.4873449212963,24
"856","Ibarra_Jesus",23.4464814814815,-103.303194444444,6
"857","Ibbotson_Jimmy",37.6975993055556,-88.0884861111111,4
"858","Ingenthron_Charles",36.4506673542977,-98.3746719853252,53
"859","Inman_John",33.6248546296297,-99.2400185185187,3
"860","Innes_John Malcolm",49.0983333333333,-77.5566666666667,3
"861","Iona_Andy",38.8220742592593,-76.1762329012346,27
"862","Iren",35.504635,-89.9632333333334,5
"863","Isley_Ron",37.56446875,-85.313,4
"864","Jabbour_Alan",39.5370778333333,-87.9173663371648,58
"865","Jackson_Aunt Molly",37.0732840442561,-89.3122965395482,118
"866","Jackson_Dewey_1900-1972",36.8432805555557,-85.688351851852,3
"867","Jackson_George Pullen_1874-1953",34.3547156363636,-87.271512030303,11
"868","Jackson_Japhus",36.2640875,-92.63975,2
"869","Jackson_John_1924-2002",44.7219196,-86.1943901833333,6
"870","Jackson_O. B.",36.8432805555557,-85.688351851852,3
"871","Jackson_Papa Charlie_ca. 1885-1938",37.1167143185185,-88.2009917708333,24
"872","Jackson_Tommy",37.8064849537037,-89.9508101851852,12
"873","Jacobs_Ollie",37.7199029861111,-90.0593425277779,16
"874","Jagneaux_Rufus",35.4140875,-95.28975,2
"875","James_Elmore_1918-1963",40.5701324074074,-91.8191851851852,3
"876","James_Lewis",38.9186365555556,-97.1658582222222,5
"877","James_Skip_1902-1969",37.5979672820513,-87.5102275042735,13
"878","Jamieson_Robert Stuart_1922-2008",39.7935847222222,-83.5493611111112,6
"879","Jarrell_Ben_1880-1946",37.842807808642,-85.9035279382717,36
"880","Jarrell_Tommy_1901-1985",37.6278341496599,-87.3688605555556,49
"881","Jasraj_Pandit",22.8,83,1
"882","Jefferson_Blind Lemon_1897-1929",35.4140875,-99.28975,4
"883","Jenkins_Frank_1888-1945",38.2208466666667,-86.1545333333333,15
"884","Jenkins_Gordon",36.0950183441077,-85.7861513185185,33
"885","Jenkins_Hezekiah",36.3072646388888,-86.5571569444444,20
"886","Jenkins_Oscar",37.861326,-86.0296078235294,17
"887","Jenkins_Snuffy_1908-1990",36.3610203292181,-86.4491930082305,27
"888","Jenks_Orville J.",37.9860192657005,-82.6719866135266,23
"889","Jennings_Waylon",39.0871694444443,-89.9320555555557,3
"890","Jepson_James",38.0379241319445,-111.981722222223,16
"891","Jiménez_Flaco",33.417725,-99.024462962963,3
"892","John_Dr._1940-",34.0869388888889,-97.3308095238095,7
"893","Johns_Pearline",36.9597462134503,-91.9852871052633,38
"894","Johnson_Bill",33.6014287037037,-93.5526111111111,3
"895","Johnson_Bunk_1879-1949",36.9501156432748,-84.652970760234,38
"896","Johnson_Clarence",38.9848546296296,-93.7596481481481,3
"897","Johnson_Earl_1886-1965",37.4884525,-86.72385,10
"898","Johnson_Easy Papa",39.3905196972222,-82.2562881329861,32
"899","Johnson_Edwin W._1905-1984",35.9157896551724,-86.195649329502,29
"900","Johnson_Jack",37.3422267692308,-84.1907815,13
"901","Johnson_James P. (James Price)_1894-1955",37.4115069166667,-90.0704501111111,20
"902","Johnson_Jennie",36.0950183441077,-85.7861513185185,33
"903","Johnson_Jess_musician",36.6709199494949,-86.2308636363637,22
"904","Johnson_Lonnie",36.7395947404762,-88.0254836633598,84
"905","Johnson_Robert_1911-1938",36.4140875,-94.28975,2
"906","Johnson_Sam_1913-2001",37.9860192657005,-82.6719866135266,23
"907","Johnson_Turner Junior",33.9003236322222,-91.2281282188889,10
"908","Johnson_Wayne",38.8,-81,1
"909","Jolson_Al_1886-1950",39.6316225396825,-94.2012558730159,7
"910","Jones_Bessie_1902-1984",36.8259944444444,-84.9128711934157,27
"911","Jones_Bob_1937-",41.7093916666667,-81.7931666666667,3
"912","Jones_Coley",36.2851146604938,-86.3055277777779,18
"913","Jones_Compton",35.1377532407408,-91.4378407407407,6
"914","Jones_George_1931-2013",35.4140875,-99.28975,4
"915","Jones_Grandpa_1913-1998",37.5911038333333,-89.7133420811966,52
"916","Jones_Isham_1894-1956",38.9186365555556,-97.1658582222222,5
"917","Jones_Jab",35.80224309375,-86.2163972465278,32
"918","Jones_Lewis",38.0379241319445,-111.981722222223,16
"919","Jones_Morgan",40.7359135416666,-79.1244236111112,8
"920","Jones_Otis",37.1784285407407,-86.7704681,30
"921","Jones_Peter",43.942725,-61.0931666666667,3
"922","Jones_Ramona",37.9140875,-92.28975,4
"923","Jones_Spike_1911-1965.",41.4140875,-86.78975,2
"924","Jones_Steve",43.942725,-61.0931666666667,3
"925","Jones_Uncle George",37.9860192657005,-82.6719866135266,23
"926","Jones_Willie",36.7760583333333,-87.0265,3
"927","Jordan_Charley_ca. 1890-1954",37.6778621527778,-89.622888888889,8
"928","Jordan_Frank",32.8181777011696,-91.3311367233918,19
"929","Jordan_Lon",37.8835794444445,-88.138483420139,32
"930","Josephs_Noel",37.5486165277778,-83.1656694444445,20
"931","Judd_Mrs.",35.9833798611111,-86.2028483333334,20
"932","Judd_Vernon",35.9833798611111,-86.2028483333334,20
"933","Justice_Dick_1906-1962",37.2660875,-85.107,12
"934","Kahn_Ed_1938-2002",35.9031305555556,-86.0088333333333,9
"935","Kahn_Hank",37.591279861111,-85.2729305555555,4
"936","Kahn_Si",37.6640875,-89.28975,2
"937","Kallini_Jozef",39.3905196972222,-82.2562881329861,32
"938","Kankani_Anthony",10.0980692121212,9.31556190909091,11
"939","Kanuteh_Alhaji Fabala",14.9555556666667,-11.261111,3
"940","Karnes_Alfred G._1891-1958",38.40704375,-85.894875,4
"941","Kartchner_Kenner Casteel_1886-1970",38.0379241319445,-111.981722222223,16
"942","Kaufman_Irving_1890-1976",38.9186365555556,-97.1658582222222,5
"943","Kaye_Danny",41.1803175925926,-82.528537037037,3
"944","Kazee_Buell_1900-1976",38.7359071428571,-86.599380952381,7
"945","Keane_James_1928-",44.8229127777778,-63.9789,5
"946","Keegan_Kevin",53.4166666666665,-5.20833333333335,2
"947","Keith_Bill_1939-2015",38.7410583333333,-86.8720555555557,3
"948","Kelly_Gene_1912-1996",44.8229127777778,-63.9789,5
"949","Kelly_James",35.9547279239766,-88.6913478947369,19
"950","Kelly_Larry and Nancy Cole",38.7093916666667,-88.1931666666667,3
"951","Kennedy_Alec_Mrs.",49.0983333333333,-77.5566666666667,6
"952","Kennedy_Archie",49.0983333333333,-77.5566666666667,3
"953","Kennedy_Archie_Mrs.",49.0983333333333,-77.5566666666667,3
"954","Kennedy_John F. (John Fitzgerald)_1917-1963",39.4140875,-87.63975,2
"955","Kennedy_Norman_1934-",46.4074917222222,-53.5423291611111,12
"956","Kennedy_Norman_1934-_Child_Francis James_1825-1896",55.4166666666665,-3.70833333333335,2
"957","Kennedy_Peter_1922-2006",53.4166666666665,-1.70833333333335,6
"958","Kennedy_Peter_1922-2006_Child_Francis James_1825-1896",53.4166666666665,-1.70833333333335,4
"959","Kennedy_Ronald",49.0983333333333,-77.5566666666667,3
"960","Kennedy_Ronald_Mrs.",49.0983333333333,-77.5566666666667,3
"961","Kerr_Alec",49.0983333333333,-77.5566666666667,15
"962","Kerr_Sandra",53.4166666666665,-1.70833333333335,2
"963","Kessinger_Clark",39.2093916666667,-86.6931666666667,9
"964","Khan_Fayyaz",22.8,83,1
"965","Khan_Salamat Ali",36.9615576388889,-45.3720277777778,4
"966","Kiker_Bill",38.3416739814814,-85.304378712963,12
"967","Kilgore_Esco",36.9597462134503,-91.9852871052633,38
"968","Killen_Louis",53.7660257234582,-1.61681724048167,4
"969","Killoran_Patrick",37.8714010353535,-70.5475498484849,22
"970","Kincaid_Bradley",36.1897392857143,-85.8256428571429,7
"971","King_Henry",37.3701403639847,-89.7413403639847,29
"972","King_Pee Wee_1914-2000",41.4362996527778,-92.7317430555556,8
"973","Kingbird_Albert",35.504635,-89.9632333333334,5
"974","Kingbird_James",35.504635,-89.9632333333334,5
"975","Kingbird_Vernon",35.504635,-89.9632333333334,5
"976","Kirby_Edward",44.1393037878788,-77.5633888888889,11
"977","Kirkes_Walter",36.2851146604938,-86.3055277777779,18
"978","Kirkpatrick_Frederick Douglass",40.08927,-85.2464666666668,5
"979","Kirkpatrick_Jim",43.2527317901235,-88.5852851851852,9
"980","Kirwani_Rag",22.8,83,1
"981","Kitsakis_Alekos",39.5788366666667,21.23824,3
"982","Kizzar_Tim",37.0574208333333,-105.118222222222,2
"983","Kline_Michael",39.4140875,-89.53975,2
"984","Knight_Lucille",39.3615875,-87.8080833333335,2
"985","Koehler_Violet",37.3226260784314,-86.2185565424837,17
"986","Koenig_Martin",44.385277777778,20.6977777777775,2
"987","Koerner_John",43.6033731481482,-95.2828888888889,3
"988","Koerner_Ray_and Glover (Musical group)",37.5189451388889,-84.9888472222222,12
"989","Konte_Alhaji Bai_1920-1983",13.5,-15.5,1
"990","Korson_George Gershon_1899-1967",38.6956694014337,-81.756486483871,31
"991","Kouyate_Djimo",14.366667,-14.283333,1
"992","Kristofferson_Kris",37.0713841666667,-99.4545666666666,10
"993","Kurin_Richard_1950-",39.3615875,-87.8080833333335,2
"994","Kuyateh_Falie",9.92666666666667,-5.13222233333333,3
"995","Kuykendall_Pete_1938-2017",39.8807541666665,-92.3980833333335,2
"996","Kyser_Kay",41.4140875,-86.78975,2
"997","LaFleur_Mayuse",35.4140875,-95.28975,2
"998","LaPrade_Charlie",37.4173722222222,-85.851,9
"999","LaRiche_Jeffrey",39.3615875,-87.8080833333335,2
"1000","Lachney_Delma_1896-1947",35.4140875,-95.28975,2
"1001","Lair_John",38.2386583333333,-89.3037333333333,6
"1002","Lam_Bela",36.5124049737778,-85.9331690946667,50
"1003","Lambert_L.W.",36.3072646388888,-86.5571569444444,20
"1004","Lambert_Pee Wee",37.4104048611111,-86.4832430555556,4
"1005","Landreneau_Adam",35.4140875,-95.28975,8
"1006","Landreneau_Cyp",35.4140875,-95.28975,8
"1007","Landress_Uncle Bud",36.1324709608466,-86.1243450835979,42
"1008","Lanigan_Pat",41.5376324074074,-82.5042777777778,3
"1009","Lanin_Howard",38.9186365555556,-97.1658582222222,5
"1010","Largen_Marshall",36.8303137152778,-81.9101835069445,16
"1011","Larisch_Kathy",38.4140875,-109.28975,2
"1012","Larner_Sam_1878-1965",53.9285714285713,-2.17857142857144,7
"1013","Larsen_Grey",39.8093916666667,-88.5306666666667,3
"1014","Lathrop_Carl",43.2527317901235,-88.5852851851852,9
"1015","Latour_Wilfred",35.4140875,-95.28975,2
"1016","Lauder_Harry_Sir_1870-1950.",54.9333333333332,-3.16666666666668,10
"1017","Lawrence_Gertrude",41.1803175925926,-82.528537037037,3
"1018","Lawrence_J.C.",36.2640875,-92.63975,2
"1019","Lawrence_T.Y.",36.2640875,-92.63975,2
"1020","Lawson_Doyle",38.1176787037037,-89.6029351851852,6
"1021","Lawson_Richard",37.9860192657005,-82.6719866135266,23
"1022","Lay_George",36.9597462134503,-91.9852871052633,38
"1023","LeJeune_Angela",35.4140875,-95.28975,2
"1024","LeJeune_Iry_1928-1955",35.4140875,-95.28975,6
"1025","LeJeune_Louis",37.0456465277778,-84.7385694444444,24
"1026","LeJeune_Lurlin",35.4140875,-95.28975,2
"1027","Leadbelly_1885-1949",37.0339672222222,-89.8799825396825,35
"1028","Leader_Bill",53,-8,1
"1029","Ledford_Lily May_1917-1985",37.7308747222222,-86.4947692175926,24
"1030","Ledford_Rosie",37.3226260784314,-86.2185565424837,17
"1031","Ledford_Steve",36.8312622435897,-86.1459600470086,26
"1032","Lee_Bill_1928-",37.8132181515152,-86.2775870505051,11
"1033","Lee_Buck",38.0379241319445,-111.981722222223,16
"1034","Lee_Floyd",36.8432805555557,-85.688351851852,3
"1035","Lee_Hector_1908-1992",39.6640875,-105.03975,2
"1036","Lee_Joe",33.9003236322222,-91.2281282188889,10
"1037","Leftwich_Brad",41.7519915462963,-87.4873449212963,24
"1038","Lenoir_J. B._1926-1967",35.4315057394636,-82.1973525057471,29
"1039","Lentine_Michiele",38.8220742592593,-76.1762329012346,27
"1040","Leslie_Sam",35.9977220679013,-94.415235,36
"1041","Lester_Bobby",38.4521816666666,-85.7345733333334,5
"1042","Lester_Julius",41.0640875,-85.18975,2
"1043","Leventhal_Harold",37.6640875,-98.28975,2
"1044","Levy_Herbert",41.4140875,-86.78975,2
"1045","Levy_John_1910-1976",36,128,1
"1046","Lewis_Dempson and Dennison",37.542725,-86.8598333333333,3
"1047","Lewis_Ed",36.7760583333333,-87.0265,3
"1048","Lewis_Furry_1893-1981",36.9818916666667,-91.5168703703703,3
"1049","Lewis_Sammie",38.8220742592593,-76.1762329012346,27
"1050","Lieberman_Ernie_1930-",36.3672461111111,-91.4684555555556,5
"1051","Lillie_Beatrice_1894-1989",41.1803175925926,-82.528537037037,3
"1052","Lincoln_Charley",36.4140875,-91.03975,2
"1053","Lindsey_Bill",38.3416739814814,-85.304378712963,12
"1054","Lindsey_W.A.",35.5611364616488,-87.4665111917563,31
"1055","Lineberger_Don_1929-2010",37.454295,-83.98446,5
"1056","Lipscomb_Mance_1895-1976",37.8132181515152,-86.2775870505051,11
"1057","Lissman_Pete",41.1803175925926,-82.528537037037,3
"1058","Little Walter_1930-1968",38.756475,-92.5478888888889,6
"1059","Lloyd_A. L. (Albert Lancaster)_1908-1982",46.4201704248365,-15.6851339869281,51
"1060","Lloyd_David",53.0916666666665,-3.025,2
"1061","Lloyd_Timothy_1951-",40.1640875,-90.53975,2
"1062","Lockwood_Robert Jr._1915-2006",37.7760583333333,-90.3598333333333,3
"1063","Logan_Ella_1913-1969",41.1803175925926,-82.528537037037,3
"1064","Logan_Tex",41.9889916666666,-69.028931372549,17
"1065","Logue_Seamus",44.1393037878788,-77.5633888888889,11
"1066","Lomax_Alan_1915-2002",37.2668368717179,-70.3362427879487,130
"1067","Lomax_John A. (John Avery)_1867-1948",33.0712180577778,-93.1995426955556,40
"1068","Lomax_Ruby T. (Ruby Terrill)",33.9003236322222,-91.2281282188889,10
"1069","Lone Pine_Hal",44.20704375,-89.144875,4
"1070","Long_Johnny",41.4140875,-86.78975,2
"1071","Long_Maud",38.1655188518518,-88.813226222222,30
"1072","Long_Wesley",39.2093916666667,-86.6931666666667,3
"1073","Lopes Graça_Fernando_1906-1994",38.7,-9.1833333333333,2
"1074","Lopez_M.",23.4464814814815,-103.303194444444,6
"1075","Lovell_Merle",36.9597462134503,-91.9852871052633,38
"1076","Lowinger_Gene",38.4521816666666,-85.7345733333334,5
"1077","Lu_Lisa",35.8447222222222,103.451944444444,1
"1078","Lucas_Lazy Bill_1918-1982",43.7025298611111,-89.6371666666667,4
"1079","Lucía_Paco de",40.2,-3.5,1
"1080","Lum_Ray_1891-1976.",36.4140875,-94.28975,2
"1081","Lund_Lewis",44.1393037878788,-77.5633888888889,11
"1082","Lundy_David",30.1247481482222,-93.0231816014815,15
"1083","Lundy_Henry",30.1247481482222,-93.0231816014815,15
"1084","Lundy_Ted",38.2364638888889,-82.6977222222222,9
"1085","Lunn_Robert",37.9140875,-92.28975,2
"1086","Lunsford_Bascom Lamar_1882-1973",36.8946308040712,-89.6533716234097,131
"1087","Lusk_John_fiddler",37.8640785714286,-88.1103285714286,7
"1088","Lyle_Andy",38.08189375,-85.61405,4
"1089","Lyle_Rudy",38.4521816666666,-85.7345733333334,5
"1090","Lynn_Loretta",37.0713841666667,-99.4545666666666,10
"1091","Lyons_Tim",53,-8,1
"1092","Mabeary_Mary",35.1377532407408,-91.4378407407407,6
"1093","MacArthur_George",43.5025398148147,-78.4513148148147,21
"1094","MacArthur_Margaret_1928-2006",41.9140875,-85.63975,2
"1095","MacAstrill_Murdoch",49.0983333333333,-77.5566666666667,6
"1096","MacBeath_Jimmy_1894-1972",54.611111111111,-2.80555555555557,6
"1097","MacBride_Larry",41.7519915462963,-87.4873449212963,24
"1098","MacColl_Ewan",51.3959581715209,-16.5760911542611,103
"1099","MacDonald_A. D.",49.0983333333333,-77.5566666666667,3
"1100","MacDonald_Dan",49.0983333333333,-77.5566666666667,6
"1101","MacDonald_John",54.611111111111,-2.80555555555557,3
"1102","MacDonald_Napthali Jacob",18.18,-77.4,1
"1103","MacDonald_Ross",49.0983333333333,-77.5566666666667,3
"1104","MacDonald_Tom Angus",49.0983333333333,-77.5566666666667,24
"1105","MacDowell_Alistair",49.0983333333333,-77.5566666666667,3
"1106","MacDowell_Lord",49.0983333333333,-77.5566666666667,3
"1107","MacGaishell_Murdoch",49.0983333333333,-77.5566666666667,3
"1108","MacHeils_Stephen Rory",49.0983333333333,-77.5566666666667,3
"1109","MacInnes_Christine MacDonald",49.0983333333333,-77.5566666666667,6
"1110","MacInnes_John Malcolm",49.0983333333333,-77.5566666666667,15
"1111","MacLellan_John L.",49.0983333333333,-77.5566666666667,3
"1112","MacLeod_Calum_1913-1977",54.611111111111,-2.80555555555557,3
"1113","MacLeod_Dan Kenny",49.0983333333333,-77.5566666666667,6
"1114","MacLeod_Effie",49.0983333333333,-77.5566666666667,6
"1115","MacNeil_Don P.",49.0983333333333,-77.5566666666667,3
"1116","MacNeil_Iona Clay",49.0983333333333,-77.5566666666667,3
"1117","MacNeil_John Dan_Mrs.",49.0983333333333,-77.5566666666667,3
"1118","MacNeil_S. R._Mrs.",49.0983333333333,-77.5566666666667,3
"1119","MacNeil_S. R._b. 1897",49.0983333333333,-77.5566666666667,3
"1120","MacPhee_Doug",49.0983333333333,-77.5566666666667,3
"1121","Macdonough_Harry_1871-1931",38.9186365555556,-97.1658582222222,5
"1122","Macon_Uncle Dave_1870-1952",37.2958873118721,-88.1779900064688,146
"1123","Maddox_Rose",37.93127,-98.8318,5
"1124","Maddux_Pewee",37.2681201666667,-87.1369341623932,26
"1125","Magnusson_Otto",38.0091690306514,-66.2447356130269,29
"1126","Maguire_Charlie",42.9140875,-96.28975,4
"1127","Mahaffey_Hub",37.542725,-86.8598333333333,3
"1128","Mainer_J. E. (Joseph E.)_1898-1971",37.5607136979167,-88.8977188194444,32
"1129","Mainer_Julia",39.61704375,-86.289875,4
"1130","Mainer_Wade_1907-2011",37.3825555564815,-86.3148074611111,120
"1131","Maitland_Richard",39.9072773333334,-90.8064939999996,10
"1132","Makem_Tommy",45.4469338888889,-41.2792259259259,15
"1133","Mandel_Ben",44.1393037878788,-77.5633888888889,11
"1134","Mandel_Harvey",53.4166666666665,-1.70833333333335,2
"1135","Mandrell_Barbara",39.0871694444443,-89.9320555555557,3
"1136","Mann_M.L.",34.3547156363636,-87.271512030303,11
"1137","Mann_Mary C.",36.9091926878307,-85.8555631693122,21
"1138","Mann_Thomas",35.9547279239766,-88.6913478947369,19
"1139","Manning_Leola",37.1167143185185,-88.2009917708333,24
"1140","Manning_Sally",35.80224309375,-86.2163972465278,32
"1141","Manuel_Ian_1935-",53,-1,1
"1142","Manuel_Preston_1915-",35.4140875,-95.28975,6
"1143","Marcel-Dubois_Claudie",35.4140875,-95.28975,12
"1144","March_William",37.9860192657005,-82.6719866135266,23
"1145","Marcotte_Marion",35.4140875,-95.28975,4
"1146","Margaree_S. W.",49.0983333333333,-77.5566666666667,3
"1147","Marley_Bob",18.18,-77.4,2
"1148","Marlor_I.N.",37.0403017961199,-88.9574441885363,63
"1149","Marshall_Artie",36.8303137152778,-81.9101835069445,16
"1150","Marshall_Jim",36.8303137152778,-81.9101835069445,16
"1151","Marshall_Thomas J.",31.4400923722222,-91.6290507198413,14
"1152","Martin_Benny",37.8932859053497,-85.2929378600823,27
"1153","Martin_E.M.",36.9597462134503,-91.9852871052633,38
"1154","Martin_Edsel",37.43684375,-85.476275,4
"1155","Martin_Fidel",42.7655953703703,-80.4211296296297,3
"1156","Martin_Jimmy",37.7094366666666,-89.1118095238095,70
"1157","Martin_Lou",41.958358,-83.2413076666667,3
"1158","Martin_Marcus_musician",38.0200017383512,-88.4649718727598,62
"1159","Martin_Reed_(Banjoist)",41.7519915462963,-87.4873449212963,24
"1160","Martin_Timothy",37.64439375,-85.11405,8
"1161","Martin_W.L._Mrs.",36.7074425322997,-88.3088281266151,43
"1162","Mason_Roger_guitarist",41.20704375,-46.644875,8
"1163","Mathieu_Carl",41.4140875,-86.78975,2
"1164","Matthews_Carabel",36.4140875,-91.03975,2
"1165","Matthews_Roger",35.9157896551724,-86.195649329502,29
"1166","Mavris_Tasso",38.5,23,1
"1167","Maxwell_Billie",38.8,-81,1
"1168","Maxwell_Clyde",38.2367064814815,-92.0690925925926,3
"1169","Maya_Jesus",37.1167143185185,-88.2009917708333,24
"1170","Mayall_John",53.4166666666665,-1.70833333333335,4
"1171","McAbee_Palmer.",35.9364699027777,-86.1256544472222,40
"1172","McArthur_Rudger",37.4098456078432,-106.759362071896,17
"1173","McBride_Bill_1864-1952",43.2527317901235,-88.5852851851852,9
"1174","McBride_Owen_1941-",47.7497421296297,-75.4443611111112,6
"1175","McCain_Jerry_1930-2012",35.4315057394636,-82.1973525057471,29
"1176","McCall_Jim",36.4140875,-91.03975,2
"1177","McCamb_Dan and His 3-Legged Dog Percy",36.8432805555557,-85.688351851852,3
"1178","McCarn_Dave_1905-1964",35.4315057394636,-82.1973525057471,29
"1179","McCarroll_James",37.125635,-85.7659,10
"1180","McCaslin_Mary",40.2760583333333,-97.0931666666667,6
"1181","McClintock_Harry K. (Harry Kirby)_1882-1957.",36.5907164655172,-89.9381055383143,58
"1182","McComiskey_Billy",44.8229127777778,-63.9789,5
"1183","McCord_May Kennedy",36.8258072222222,-90.0335866598081,81
"1184","McCormick_Mack",35.4140875,-99.28975,2
"1185","McCoury_Del_1939-",39.2909950396825,-88.2760218253968,28
"1186","McCoy_Ethel",36.8540730208547,-87.0118385223931,65
"1187","McCoy_George",36.8540730208547,-87.0118385223931,65
"1188","McCrary_Samuel H._1913-1991",37.8605601388889,-64.9943526388889,20
"1189","McCurdy_Ed_1919-2000",43.5586673611111,-49.5990324074074,12
"1190","McCutcheon_Jack_1923-2001",36.3767064814813,-95.0067777777777,3
"1191","McDaniel_Lewis",36.6880291666667,-87.26325,6
"1192","McDonald_Earl",33.6014287037037,-93.5526111111111,3
"1193","McDonald_Jacqueline",53.4166666666665,-1.70833333333335,2
"1194","McDonald_Norman",49.0983333333333,-77.5566666666667,3
"1195","McDowell_Fred",37.2465550350877,-85.3647006374269,38
"1196","McDowell_L.L._Mrs.",36.7074425322997,-88.3088281266151,43
"1197","McEuen_John_1945-",37.6975993055556,-88.0884861111111,4
"1198","McEuen_William",37.6975993055556,-88.0884861111111,4
"1199","McGaishell_Murdoch",49.0983333333333,-77.5566666666667,6
"1200","McGann_Andy",53,-8,1
"1201","McGee_Dennis",36.4324030851064,-81.6987566666667,47
"1202","McGee_F. W. (Ford Washington)_1890-1971",37.1784285407407,-86.7704681,30
"1203","McGee_Kirk_1899-1983",38.4299894829483,-86.1951816842684,101
"1204","McGee_Sam_1894-1975",38.2688048100665,-86.0733064112061,117
"1205","McGhee_Brownie_1915-1996",40.7640875,-85.03975,2
"1206","McGhee_John",36.0791433269841,-82.9680635047619,35
"1207","McGhee_John Leftidge",39.2093916666667,-86.6931666666667,6
"1208","McGinn_Matt_1928-1977",53,-1,1
"1209","McGlynn_Sean",44.8229127777778,-63.9789,5
"1210","McGreevy_Johnny_1919-1990",53,-8,1
"1211","McKenna_Antoinette",53,-8,2
"1212","McKenna_Joe",53,-8,2
"1213","McKinnie_Tip",37.3226260784314,-86.2185565424837,17
"1214","McKissick_Norsalus",37.8605601388889,-64.9943526388889,20
"1215","McLain_Tommy",35.4140875,-95.28975,2
"1216","McLean_Will_1919-1990",33.9807541666665,-90.1055833333335,2
"1217","McLeod_Malcolm Angus",49.0983333333333,-77.5566666666667,24
"1218","McMichen_Clayton_1900-1970",37.1437363492063,-86.4251583708514,77
"1219","McMullen_Fred",36.4140875,-91.03975,2
"1220","McNiff-Locke_Margaret",37.1509915608466,-73.5260046031747,21
"1221","McTell_Blind Willie",36.1770087301587,-86.6652037037038,21
"1222","Meaders_Arie",35.789762037037,-88.5883518518519,9
"1223","Meaders_Cheever",36.0702006756757,-89.6632378378378,37
"1224","Meaders_Lanier",36.4140875,-91.03975,10
"1225","Meadows_Edgar Cassell",36.8303137152778,-81.9101835069445,16
"1226","Meisels_Yeshaya_b. 1869",37.1784285407407,-86.7704681,30
"1227","Melton_Raymond",38.2364638888889,-82.6977222222222,9
"1228","Memphis Minnie_1897-1973",37.35477,-91.8260222222222,5
"1229","Menchaco_Pearl",30.1247481482222,-93.0231816014815,15
"1230","Mendoza_Lydia",35.80224309375,-86.2163972465278,32
"1231","Meredith_Bud",44.588075,-110.711833333334,5
"1232","Meyers_Augie",33.6248546296297,-99.2400185185187,3
"1233","Meyers_Jim F.",35.9547279239766,-88.6913478947369,19
"1234","Miles_Henry",38.5280953703704,-89.776962962963,6
"1235","Miles_J. Paul",35.9157896551724,-86.195649329502,29
"1236","Miles_Paul_musician",38.3416739814814,-85.304378712963,12
"1237","Miles_Vernon",35.9157896551724,-86.195649329502,29
"1238","Miles_Wade",35.9157896551724,-86.195649329502,29
"1239","Miller_David",39.2093916666667,-86.6931666666667,3
"1240","Miller_Roger_1936-1992",37.0713841666667,-99.4545666666666,10
"1241","Miller_Susie",35.504635,-89.9632333333334,5
"1242","Miller_William",35.0682805555557,-90.8336296296297,3
"1243","Milteau_Jean-Jacques",47,2,1
"1244","Miner_John",41.1803175925926,-82.528537037037,3
"1245","Miranda_Carmen_1909-1955",41.1803175925926,-82.528537037037,3
"1246","Miranda_Franquilino",30.1247481482222,-93.0231816014815,15
"1247","Mitchell_Bill",44.588075,-110.711833333334,5
"1248","Mitchell_Fleeta",35.5944842592593,-88.4875185185187,3
"1249","Mitchell_George",36.0382805555556,-105.412148148148,3
"1250","Mitchell_Nathaniel",35.5944842592593,-88.4875185185187,3
"1251","Mitchum_Johnny",37.6140875,-93.83975,4
"1252","Miyagi_Kazue",35,136,1
"1253","Mize_Seth",37.3140875,-95.38975,2
"1254","Moeller_Dee",33.6248546296297,-99.2400185185187,3
"1255","Molitor_Milton",35.4140875,-95.28975,2
"1256","Moloney_Mick_1944-",53,-8,1
"1257","Moloney_Mick_1944- (liner notes)",44.8229127777778,-63.9789,5
"1258","Molton_Norman",40.5743916666667,-83.5387222222223,3
"1259","Moncrief_Maud",34.3547156363636,-87.271512030303,11
"1260","Monroe_Bill_1911-1996",38.6138208241127,-88.8304331968326,670
"1261","Monroe_Bill_1911-1996_McKinley_William_1843-1901",38.6640875,-91.78975,2
"1262","Monroe_Charlie",37.3039868055555,-89.3488736111111,48
"1263","Monroe_James",38.2576916666666,-86.225017948718,13
"1264","Monroe_Melissa",38.8,-81,2
"1265","Montana Slim_1904-1996",37.9193462962963,-90.4662218855219,33
"1266","Montana_Patsy",36.8710780982906,-89.405052991453,26
"1267","Monterde_Francisco_1894-1985",23,-102,1
"1268","Montgomery_Little Brother_1906-1985",40.5701324074074,-91.8191851851852,3
"1269","Montoya_Ramón_1880-1951",40.2,-3.5,1
"1270","Moody_Clyde_1917-1989",37.84513125,-84.8400472222223,36
"1271","Moody_Mack",44.1393037878788,-77.5633888888889,11
"1272","Moonshine Kate_1909-1992",38.8,-81,1
"1273","Moore_Alice",37.6778621527778,-89.622888888889,8
"1274","Moore_Byrd",36.3677577623583,-85.8812549696145,49
"1275","Moore_Eva Ashley",38.4544393518518,-82.5999111111111,12
"1276","Moore_Grady",37.6975993055556,-88.0884861111111,4
"1277","Moore_Hamish_1950-",55.4166666666665,-3.70833333333335,2
"1278","Moore_Johnny Lee",36.7760583333333,-87.0265,3
"1279","Moore_L.C.",41.2455953703703,-82.4538148148147,3
"1280","Moore_Tiny",38.2010583333333,-113.666314814815,3
"1281","Moore_Tommy",37.3345845,-84.5477343888889,18
"1282","Moré_Beny_1919-1963",34.942725,-84.3598333333333,3
"1283","Morgan_Albert",40.7359135416666,-79.1244236111112,8
"1284","Morgan_William J.",43.3018027777777,-90.4126900462964,12
"1285","Morris_Elida",38.9186365555556,-97.1658582222222,5
"1286","Morris_Jimmy",37.7199029861111,-90.0593425277779,16
"1287","Morris_Neil_folk singer",37.7559492133333,-90.3519687216667,20
"1288","Morris_Wiley_1919-1990",38.75579375,-85.4040416666668,4
"1289","Morris_William T.",37.4098456078432,-106.759362071896,17
"1290","Morris_Zeke_1916-1999",36.8616740204678,-86.0977723713451,38
"1291","Morrison_Annie Margaret",49.0983333333333,-77.5566666666667,3
"1292","Morrison_Dan_1910-",49.0983333333333,-77.5566666666667,48
"1293","Morrison_David",37.9860192657005,-82.6719866135266,23
"1294","Morrison_Henry",36.4140875,-91.03975,4
"1295","Morrison_Sandy Kenny",49.0983333333333,-77.5566666666667,18
"1296","Morton_Craig_Taylor_Zachary_1784-1850",47.6653770833333,-43.6740416666667,4
"1297","Moseley_Arthur",43.3018027777777,-90.4126900462964,12
"1298","Mosquera_Antonio",40.85,-4.6,4
"1299","Muddy Waters_1915-1983",40.5701324074074,-91.8191851851852,3
"1300","Muldaur_Maria",42.6560488095238,-65.6151666666667,14
"1301","Muldowney_James",40.7359135416666,-79.1244236111112,8
"1302","Mulvihill_Brendan_1954-",44.3529315972223,-73.3182361111111,16
"1303","Mulvihill_Martin_1923-1987",44.8229127777778,-63.9789,5
"1304","Murcell_Raymond",41.1803175925926,-82.528537037037,3
"1305","Murlin_Bob",37.6640875,-98.28975,2
"1306","Murphy_Jimmy",37.5486165277778,-83.1656694444445,20
"1307","Murphy_Otho",38.0379241319445,-111.981722222223,16
"1308","Murray_Billy",39.6316225396825,-94.2012558730159,7
"1309","Murray_Charlie",54.611111111111,-2.80555555555557,3
"1310","Musselwhite_Charlie",38.4140875,-109.28975,2
"1311","Myers_Sam_1936-2006",38.2367064814815,-92.0690925925926,3
"1312","Nahwooksy_Clydia_1933-2009",38.0743916666667,-91.205388888889,9
"1313","Nahwooksy_Fred",38.0743916666667,-91.205388888889,3
"1314","Nail_Euna Vee Denson",34.3547156363636,-87.271512030303,11
"1315","Namekulua_Alice K.",30.6640875,-128.28975,2
"1316","Naquin_Edius_1901-1985",35.5834651115741,-88.5765971564815,48
"1317","Natani_Grandma",36.0382805555556,-105.412148148148,3
"1318","Natani_Grandpa",36.0382805555556,-105.412148148148,3
"1319","Ndam_Maisage Zindam",10.0980692121212,9.31556190909091,11
"1320","Near_Holly",38.0390875,-103.78975,4
"1321","Neaves_Glen",37.4104048611111,-86.4832430555556,4
"1322","Nelson_Paul",43.6033731481482,-95.2828888888889,3
"1323","Nelson_Red_1907-1970",37.6778621527778,-89.622888888889,8
"1324","Nelson_Sonny Boy_1909-1998",38.2367064814815,-92.0690925925926,3
"1325","Nelson_Willie_1933-",35.4140875,-99.28975,2
"1326","Nevins_Richard (liner notes)",38.3058086111111,-85.1970199722223,16
"1327","Newman_Jimmy C.",35.4140875,-95.28975,2
"1328","Ni Ghuarim_Sorcha_1911-1977",53.4166666666665,-5.20833333333335,2
"1329","Niazi_Manzoor A.K.",30,71,1
"1330","Nicholas_Arthur_1932-2001",39.7760583333333,-87.1931666666667,3
"1331","Nicholas_General Custer_1895-1979",39.93127,-88.5318,5
"1332","Nicolle_Arthur",52.8641333333333,-75.6392148148147,6
"1333","Nieto_Eleanor C.",36.0382805555556,-105.412148148148,3
"1334","Niles_John Jacob_1892-1980",42.8594416666666,-55.6262777777778,14
"1335","Ninaintadiyon_Nila",22.8,83,1
"1336","Nixon_Hammie_1908-1984",38.2367064814815,-92.0690925925926,3
"1337","Norman_John",43.2527317901235,-88.5852851851852,9
"1338","Norris_Land",38.8,-81,1
"1339","Norton_Henry",38.40704375,-85.894875,4
"1340","Nowlin_Bill_1945-",36.8432805555557,-85.688351851852,3
"1341","Nubin_Katie Bell",37.8605601388889,-64.9943526388889,20
"1342","Nye_Pearl R._1872-1950",35.504635,-89.9632333333334,5
"1343","O'Day_Molly_1923-1987",36.6095598867209,-85.9049266710027,41
"1344","O'Dell_Doye",38.0091690306514,-66.2447356130269,29
"1345","O'Donnell_Bridie",53.4166666666665,-1.70833333333335,2
"1346","O'Donnell_Eugene_1932-2019",44.8229127777778,-63.9789,5
"1347","O'Hara_Mary_1935-",43.5586673611111,-49.5990324074074,12
"1348","O'Neal_Waldo",36.7939212222222,-89.7412551111111,25
"1349","Obadia_Hakki",33,43,1
"1350","Ochs_Phil",40.3984525,-83.00385,10
"1351","Odem_Lonnie P.",34.3547156363636,-87.271512030303,11
"1352","Odetta_1930-2008",43.0240238888889,-57.8231592592592,15
"1353","Ohrlin_Glenn_1926-2015",38.0669495833333,-83.3633122222222,20
"1354","Older_Lawrence",44.1393037878788,-77.5633888888889,11
"1355","Oliver_Henry Herman_b. 1909",36.8432805555557,-85.688351851852,3
"1356","Onezine_Mike",35.4140875,-95.28975,2
"1357","Orem_Preston Ware_1865-1938",41.1803175925926,-82.528537037037,3
"1358","Ornstein_Lisa",41.7519915462963,-87.4873449212963,24
"1359","Osborne_Sonny",38.4977035714286,-89.2307428571429,7
"1360","Ossman_Vess L._1868-1923",37.4115069166667,-90.0704501111111,20
"1361","Oster_Harry",35.4140875,-95.28975,2
"1362","Otsuka_Akira",39.3615875,-87.8080833333335,2
"1363","Owen_Uncle Dock",34.3547156363636,-87.271512030303,11
"1364","Owens_Buck_1929-2006",37.0713841666667,-99.4545666666666,10
"1365","Ò Riada_Seán.",53,-8,2
"1366","Pace_Kelly_1913-1958",32.621160601292,-91.4041765118863,43
"1367","Pachitan_M.",23.4464814814815,-103.303194444444,6
"1368","Pack_Buster and the Lonesome Pine Boys",37.4104048611111,-86.4832430555556,4
"1369","Pahe_Ethel",36.0382805555556,-105.412148148148,3
"1370","Paisley_Bob_guitarist",39.2760583333333,-83.5931666666667,3
"1371","Paley_Tom",53.4166666666665,-1.70833333333335,2
"1372","Pam_Moses",10.0980692121212,9.31556190909091,11
"1373","Pancerzewski_Joe._1905-1991",43.6640875,-109.53975,2
"1374","Papariello_Antonio",38.8220742592593,-76.1762329012346,27
"1375","Parham_Chub",37.4814553535353,-86.0279759343434,22
"1376","Parker_Bill",38.6640875,-91.78975,2
"1377","Parker_Byron_1911-1948",36.6025241296296,-86.6069237074074,30
"1378","Parker_Charles_1919-1980",54.1333333333332,-2.36666666666668,15
"1379","Parker_Chet_1891-1975",36.5723479166667,-84.4882916666667,12
"1380","Parker_Curley",37.4104048611111,-86.4832430555556,4
"1381","Parker_Knocky_1918-1986",35.4140875,-95.28975,2
"1382","Parker_Maggie Hammons_1899-1987",39.4140875,-89.53975,2
"1383","Parker_Mary Nell",38.6640875,-91.78975,2
"1384","Parker_Paul",36.8432805555557,-85.688351851852,3
"1385","Parker_William",41.1803175925926,-82.528537037037,3
"1386","Parks_Oscar",36.7074425322997,-88.3088281266151,43
"1387","Parsons_Henry",36.8432805555557,-85.688351851852,3
"1388","Parsons_Phoeba_1908-2001",37.955884375,-81.0683034722223,16
"1389","Parsons_Roscoe_1943-",37.955884375,-81.0683034722223,16
"1390","Parton_Dolly",37.0713841666667,-99.4545666666666,10
"1391","Paton_Sandy",44.1393037878788,-77.5633888888889,11
"1392","Patterson_Ina",39.4140875,-102.03975,2
"1393","Patterson_Joe",36.0649928076923,-88.0780606641026,26
"1394","Patterson_Ray",39.4140875,-102.03975,2
"1395","Patterson_Red",37.525635,-84.9159,5
"1396","Paxton_Tom_1937-",38.075394047619,-85.246119047619,14
"1397","Peaches_Clarence",36.0382805555556,-105.412148148148,3
"1398","Pearson_N.W.",35.6583574074073,-90.395362962963,3
"1399","Peeples_Charlene",36.9818916666667,-91.5168703703703,3
"1400","Peerce_Lonnie",44.588075,-110.711833333334,5
"1401","Pegram_George_1911-1974",37.4446421296297,-83.5431592592593,6
"1402","Pendleton_Fred",39.2093916666667,-86.6931666666667,3
"1403","Pendleton_Silas",39.065635,-83.0159,5
"1404","Pennington_Stan",40.1640875,-90.53975,2
"1405","Perdicopoulos_D.",38.0091690306514,-66.2447356130269,29
"1406","Perez_A.",23.4464814814815,-103.303194444444,6
"1407","Perkins_Al_guitarist",37.591279861111,-85.2729305555555,4
"1408","Perkins_Mr.",40.38927,-90.2464666666668,5
"1409","Perls_Nick_1942-1987",36.4140875,-91.03975,2
"1410","Perrier_Catherine",47,2,1
"1411","Perron_Miller and Yeats (Musical group)",45.6093916666667,-59.3598333333333,3
"1412","Perry_Wayne",35.407356690331,-89.697429648227,47
"1413","Peshotels_Francis",35.4140875,-95.28975,2
"1414","Peters_Homer",35.9547279239766,-88.6913478947369,19
"1415","Petraglia_Clara",-14,-53,1
"1416","Pettyjohn_Bunk_b. 1902",37.0574208333333,-105.118222222222,2
"1417","Phelps_Harvey L.",39.53204375,-85.644875,4
"1418","Phillips_Utah",39.6640875,-105.03975,2
"1419","Phipps_Bonnie",39.4140875,-102.03975,2
"1420","Phipps_Ernest",38.40704375,-85.894875,4
"1421","Phipps_Sherman",38.6640875,-91.78975,2
"1422","Piaf_Edith_1915-1963",47,2,1
"1423","Piano Red_1911-1985",37.4251072222222,-89.9062611111111,10
"1424","Pickard_Obed",35.9833798611111,-86.2028483333334,20
"1425","Pierce_Billie_1907-1974",33.6014287037037,-93.5526111111111,3
"1426","Pierce_De De_1904-1973",33.6014287037037,-93.5526111111111,6
"1427","Pierce_Jacqueline_mezzo-soprano",41.1803175925926,-82.528537037037,3
"1428","Pike_Russ",36.6100317692308,-92.329958931624,65
"1429","Pitchford_Lonnie",35.504635,-89.9632333333334,5
"1430","Pitre_Austin",35.4140875,-95.28975,20
"1431","Pizio_Josef",38.8220742592593,-76.1762329012346,27
"1432","Place_Jeffrey",44.3435847222222,-56.7104777777778,6
"1433","Platt_Moses",35.5534056303371,-88.0787756338328,89
"1434","Polak_Wladyslaw",37.29843092,-78.9040101318519,75
"1435","Pomeroy_Douglas",37.0713841666667,-99.4545666666666,10
"1436","Poole_Charlie_1892-1931",37.2987122979798,-85.6877744983165,66
"1437","Poonchhwaley_S. K.",22.8,83,1
"1438","Poplin_China_1903-1979",36.2851146604938,-86.3055277777779,18
"1439","Porter_Burt",43.3073204166668,-78.9218802777777,4
"1440","Porter_Charlie",31.4400923722222,-91.6290507198413,14
"1441","Posey_Delilah Denson",34.3547156363636,-87.271512030303,11
"1442","Poss_Barry",38.042725,-86.5265,3
"1443","Powell_Lester",35.504635,-89.9632333333334,5
"1444","Pratcher_Bob",36.7760583333333,-87.0265,3
"1445","Pratcher_Miles",36.7760583333333,-87.0265,3
"1446","Presley_Elvis_1935-1977",36.761394047619,-97.0783055555555,14
"1447","Presson_Nunnie_1897-1977",37.3226260784314,-86.2185565424837,17
"1448","Preston_Mike",44.8229127777778,-63.9789,5
"1449","Price_Bill",36.3230688271604,-85.7004691358025,9
"1450","Price_Fred_1915-1987",38.3157664373737,-87.8533599616161,110
"1451","Price_Ray_1926-2013",37.0713841666667,-99.4545666666666,10
"1452","Price_Sammy",37.8605601388889,-64.9943526388889,20
"1453","Professor Longhair_1918-1980",33.6014287037037,-93.5526111111111,3
"1454","Proffitt_Frank",37.9216590277778,-82.3730146825397,28
"1455","Propps_Louis H.",35.9833798611111,-86.2028483333334,20
"1456","Prothero_Allen",32.233535440404,-91.4575244794613,33
"1457","Pryor_David",30.7597419115326,-92.3501529,29
"1458","Puckett_Riley_1894-1946",36.4452734844784,-86.2783094084818,131
"1459","Puebla_Carlos_1917-1989",22,-79.5,1
"1460","Pugh_Joe B.",36.7760583333333,-87.0265,3
"1461","Puluse_Don",41.1803175925926,-82.528537037037,3
"1462","Purdy_J.D.",36.9091926878307,-85.8555631693122,21
"1463","Pyle_Dwanna",36.2640875,-92.63975,2
"1464","Pyle_Pete",36.3640875,-93.73975,6
"1465","Quevedo_Raymond_1892-1962",35.5611364616488,-87.4665111917563,31
"1466","Quinn_John J.",40.7359135416666,-79.1244236111112,8
"1467","Rachell_Yank",36.2621609189189,-85.6757895105105,37
"1468","Rada_Andrew",40.7359135416666,-79.1244236111112,8
"1469","Raeburn_Andrew",41.1803175925926,-82.528537037037,3
"1470","Rafferty_Mike",44.8229127777778,-63.9789,5
"1471","Raga_Behag",22.8,83,1
"1472","Raga_Nata",22.8,83,1
"1473","Raimon_1940-",41.01875,-0.981111111111111,4
"1474","Ramos_H.",23.4464814814815,-103.303194444444,6
"1475","Ramsey_Emma",36.4140875,-91.03975,4
"1476","Randolph_Brother",33.6014287037037,-93.5526111111111,3
"1477","Randolph_Percy",35.4140875,-95.28975,2
"1478","Randolph_Vance_1892-1980",37.4098456078432,-106.759362071896,17
"1479","Ransom_Vallie",36.2640875,-92.63975,2
"1480","Ray_Aulton",39.3905196972222,-82.2562881329861,32
"1481","Ray_Lost John",35.80224309375,-86.2163972465278,32
"1482","Rayam_Curtis",41.1803175925926,-82.528537037037,3
"1483","Rea_David",42.8630423611111,-62.0860694444445,12
"1484","Read_Sue",41.7519915462963,-87.4873449212963,24
"1485","Read_Wallace_1924-1981",35.4140875,-95.28975,2
"1486","Reagon_Bernice Johnson_1942-2024",39.583690625,-85.1060625000001,8
"1487","Reagon_Toshi",38.75294375,-82.9488916666668,4
"1488","Rector_John",37.8835794444445,-88.138483420139,32
"1489","Rector_Red",36.8126130341879,-87.7279401709402,13
"1490","Red River Dave_1914-2002",33.6248546296297,-99.2400185185187,3
"1491","Redman_Don",41.1803175925926,-82.528537037037,3
"1492","Redman_Willie_b. 1906",33.915125,-97.7713,3
"1493","Redpath_Jean",49.4329034722222,-43.8677361111111,12
"1494","Redpath_Jean (liner notes)",55.4166666666665,-3.70833333333335,2
"1495","Reece_Florence_1900-1986",38.3371958333333,-84.6860277777778,6
"1496","Reed_Arville",39.2093916666667,-86.6931666666667,3
"1497","Reed_Blind Alfred",36.9921209567901,-85.898417904321,36
"1498","Reed_Dock",33.1913314704981,-91.2956165494253,29
"1499","Reed_Henry",32.8181777011696,-91.3311367233918,19
"1500","Reed_Jimmy_1925-1976",40.5701324074074,-91.8191851851852,3
"1501","Reed_Ola Belle_1916-2002",38.2364638888889,-82.6977222222222,9
"1502","Reed_Orville",38.7093916666667,-88.1931666666667,3
"1503","Reedy_Blair",35.9547279239766,-88.6913478947369,19
"1504","Reese_Dock",36.8349878263889,-90.1156917916667,16
"1505","Reeves_Jim",39.0113466049383,-96.4666450617284,18
"1506","Reichert_Louise_1896-1985",47,2,1
"1507","Reinhardt_Django_1910-1953",47.9283333333333,2.17611111111111,2
"1508","Reinhart_Dick",38.0091690306514,-66.2447356130269,29
"1509","Reisman_Leo_1897-1961.",41.1803175925926,-82.528537037037,3
"1510","Renaud_Le roi",47,2,1
"1511","Reno_Don",37.9347147988505,-84.9688942528736,58
"1512","Reno_Ronnie",37.82254375,-84.7750666666667,12
"1513","Reynolds_Paddy",53,-8,1
"1514","Rhoads_Mary",42.9,-39.5,2
"1515","Rhodes_Willard_1901-1992",36.0382805555556,-105.412148148148,6
"1516","Rice_Ben",37.7559492133333,-90.3519687216667,20
"1517","Rice_Bernie",37.8149726190476,-84.4484238095239,7
"1518","Rice_Larry_singer",38.6640875,-91.78975,2
"1519","Richard_Belton",35.4140875,-95.28975,6
"1520","Richards_Dora",43.3018027777777,-90.4126900462964,12
"1521","Richards_Keith_1943-",53.4166666666665,-1.70833333333335,2
"1522","Richardson_Larry_banjo player",37.9513881944444,-85.8090472222222,12
"1523","Richman_Harry_1895-1972",41.1803175925926,-82.528537037037,3
"1524","Riddle_Almeda",37.7748592105263,-82.6880187134503,19
"1525","Riddle_Jimmy",37.7703254212121,-90.5281306560606,22
"1526","Riddle_Lesley",42.8630423611111,-62.0860694444445,12
"1527","Riendeau_Henry_1929-",42.7655953703703,-80.4211296296297,3
"1528","Riendeau_Louis_1900-1985",42.7655953703703,-80.4211296296297,3
"1529","Riendeau_Lourier",42.7655953703703,-80.4211296296297,3
"1530","Riley_Bartown",35.4140875,-99.28975,2
"1531","Riley_Sinew L.",36.0382805555556,-105.412148148148,3
"1532","Rindlisbacher_Iva Kundert_1899-1981",43.3018027777777,-90.4126900462964,12
"1533","Rindlisbacher_Otto_1895-1975",43.3018027777777,-90.4126900462964,12
"1534","Ring_Blanche",38.9186365555556,-97.1658582222222,5
"1535","Ringer_Jim",39.212075,-104.062642857143,7
"1536","Rinzler_Kate_1937-2010",35.8516072916666,-71.1239791666667,8
"1537","Rinzler_Kate_1937-2010 (liner notes)",35.504635,-89.9632333333334,5
"1538","Rinzler_Kate_1937-2010_Rinzler_Ralph",39.3615875,-87.8080833333335,2
"1539","Rinzler_Ralph",39.5208621022027,-79.4446928245713,1367
"1540","Rinzler_Ralph (liner notes)",36.9799206944444,-84.8021472222222,20
"1541","Rinzler_Richard",37.591279861111,-85.2729305555555,8
"1542","Ripley_S. Dillon (Sidney Dillon)_1913-2001",39.3615875,-87.8080833333335,2
"1543","Ritchie_Isom",37.7559492133333,-90.3519687216667,20
"1544","Ritchie_Jean",37.7936946367521,-88.7941206481482,78
"1545","Ritchie_Jean (liner notes)",38.6640875,-91.78975,2
"1546","Roanhorse_Ambrose_1904-1982",36.0382805555556,-105.412148148148,3
"1547","Roark_Oda",37.3226260784314,-86.2185565424837,17
"1548","Roark_Robert",37.3226260784314,-86.2185565424837,17
"1549","Robbins_Marty",37.0713841666667,-99.4545666666666,10
"1550","Roberson_George",38.9848546296296,-93.7596481481481,3
"1551","Roberts_Fiddlin' Doc_1897-1978.",36.6183194444444,-84.5782777777778,9
"1552","Roberts_John Storm (liner notes)",18.66,-73.4666666666667,3
"1553","Roberts_Robin",53,-8,1
"1554","Roberts_Steve",37.6574605,-85.04633325,4
"1555","Robertson_Dick_1903-1979",41.4140875,-86.78975,2
"1556","Robertson_Eck_1887-1975",36.2697972222222,-87.3643888888889,9
"1557","Robertson_Jeannie_1908-1975",54.611111111111,-2.80555555555557,9
"1558","Robeson_Paul_1898-1976",41.4140875,-86.78975,6
"1559","Robin_Moise",35.4140875,-95.28975,4
"1560","Robinson_Bill_1878-1949",41.1803175925926,-82.528537037037,3
"1561","Robinson_Leighton",38.9207006558559,-91.5053176573573,37
"1562","Robinson_Sunshine",36.7074425322997,-88.3088281266151,43
"1563","Robison_Carson",35.8895599444444,-86.0484605611111,20
"1564","Robison_Gene",38.4521816666666,-85.7345733333334,5
"1565","Rockin' Dopsie_1932-1993",35.4140875,-95.28975,2
"1566","Rodeheaver_Homer A. (Homer Alvan)_1880-1955",37.8605601388889,-64.9943526388889,20
"1567","Roderick_Judy",38.075394047619,-85.246119047619,14
"1568","Rodgers_Jimmie_1897-1933.",36.2458964409722,-90.9185638888889,32
"1569","Rodgers_Jimmy_Mrs.",36.78204375,-89.644875,4
"1570","Rodríguez_Arsenio.",35.29391875,-87.8619583333334,8
"1571","Rodríguez_Tito_1923-1973",18.25,-66.5,1
"1572","Roger_Aldus",35.4140875,-95.28975,4
"1573","Rogers_Gamble",33.9807541666665,-90.1055833333335,2
"1574","Rogers_Grant_1907-1979",43.6092890190476,-78.7075794912699,14
"1575","Rogers_Ralph",37.0574208333333,-105.118222222222,2
"1576","Roland_Walter",35.4315057394636,-82.1973525057471,29
"1577","Romaine_Anne",33.9807541666665,-90.1055833333335,2
"1578","Rooney_Jim_1938-",39.6284272929293,-86.6587828282829,11
"1579","Rorer_Posey",38.5366214285714,-86.8798571428571,7
"1580","Rosenbaum_Art",41.6080502094017,-87.8650940299146,26
"1581","Rosenthal_Gene",39.0053407407407,-92.4395324074074,12
"1582","Rosmini_Dick",40.7640875,-85.03975,2
"1583","Ross_Mark",40.5743916666667,-83.5387222222223,3
"1584","Rowan_Peter_1942-",37.8489139937107,-89.0038270440252,53
"1585","RudziAnski_Bruno",35.5611364616488,-87.4665111917563,31
"1586","Ruffner_Alva",35.9547279239766,-88.6913478947369,19
"1587","Russell_Linda",41.4140875,-86.78975,2
"1588","Russell_Luis",41.4140875,-86.78975,2
"1589","Rutherford_Leonard",37.4118504583333,-85.6504663916667,40
"1590","S-alim_Abu Bakir",15.5,48,1
"1591","Sabri_Haji G.H. & Haji M.",30,71,1
"1592","Sacks_Howard L.",40.1640875,-90.53975,2
"1593","Sahm_Doug",34.680225,-102.608814814815,6
"1594","Sahone_Alhaji Amara",14.9555556666667,-11.261111,3
"1595","Sainte-Marie_Buffy",39.205635,-82.2159,5
"1596","Saletan_Tony",40.7640875,-85.03975,2
"1597","Salley_Roy",41.623651,-82.5656666666667,3
"1598","Salomma_Hiski",36.3072646388888,-86.5571569444444,20
"1599","Samba_Abdoulie",14.9555556666667,-11.261111,3
"1600","Sampy_Hiram",35.4140875,-95.28975,2
"1601","Samway_Josie",49.0983333333333,-77.5566666666667,15
"1602","Sanders_Alvin",36.4140875,-91.03975,2
"1603","Sanders_Don R._1930-",33.6248546296297,-99.2400185185187,3
"1604","Sandis_M.",23.4464814814815,-103.303194444444,6
"1605","Sankey_I. Allan (Ira Allan)_1874-1915",37.8605601388889,-64.9943526388889,20
"1606","Sapps_Booker T.",35.9157896551724,-86.195649329502,29
"1607","Sarkisian_Reuben",37.4115069166667,-90.0704501111111,20
"1608","Savoy_Marc",37.1509915608466,-73.5260046031747,21
"1609","Sayles_Charlie",39.298067948718,-87.0206735042737,78
"1610","Schaffer_Gus",43.2527317901235,-88.5852851851852,9
"1611","Schartiger_Holly",39.7760583333333,-87.1931666666667,3
"1612","Scheele_Carl H.",38.9186365555556,-97.1658582222222,5
"1613","Schiffler_George",37.3522995726495,-83.7197555555555,13
"1614","Schilling_Jean",37.61134375,-87.2066,4
"1615","Schuch_Anthony_1928-",36.8303137152778,-81.9101835069445,16
"1616","Schwartz_Tony",41.3139003968254,-84.9635158730159,7
"1617","Schwarz_Tracy",40.8934644575163,-86.1174264803922,34
"1618","Scott_Ben_Mrs.",37.8835794444445,-88.138483420139,32
"1619","Scott_Bill",36.8303137152778,-81.9101835069445,16
"1620","Scruggs_Earl",36.1826769930556,-84.7508932361111,64
"1621","Scruggs_Randy",37.6975993055556,-88.0884861111111,4
"1622","Scruggs_Thelma",35.504635,-89.9632333333334,5
"1623","Seagle_Oscar",37.8605601388889,-64.9943526388889,20
"1624","Seeger_Anthony",39.3615875,-87.8080833333335,4
"1625","Seeger_Anthony (liner notes)",-14,-53,1
"1626","Seeger_Barbara",49.4158069444443,-30.0688055555556,6
"1627","Seeger_Mike_1933-2009",41.4926470628507,-76.6677601875421,99
"1628","Seeger_Peggy_1935-",50.2477641283524,-23.5578951149426,116
"1629","Seeger_Peggy_1935- (liner notes)",47.4153770833333,-44.2490416666667,4
"1630","Seeger_Penny_1943-1993",43.1055406241134,-65.1568459198582,47
"1631","Seeger_Pete_1919-2014",41.8592412698413,-75.8800702947846,49
"1632","Seeger_Ruth Crawford_1901-1953",47.4153770833333,-44.2490416666667,4
"1633","Seegmiller_Ella J.",38.0379241319445,-111.981722222223,16
"1634","Seeley_Blossom_1891-1974.",38.9186365555556,-97.1658582222222,5
"1635","Segura_Dewey",35.80224309375,-86.2163972465278,32
"1636","Segura_Joe (Joseph M)",30.1247481482222,-93.0231816014815,15
"1637","Selam_Leroy",37.5486165277778,-83.1656694444445,20
"1638","Serrano_Juan_1934-",40.2,-3.5,1
"1639","Sewall_Jay",51.3,-87.5,2
"1640","Sexton_Lee",38.31149375,-86.85015,4
"1641","Shade_Will_1898-1966",35.80224309375,-86.2163972465278,32
"1642","Shamsedine_Huda",33.833333,35.766667,1
"1643","Shamsedine_Nasri",33.833333,35.766667,1
"1644","Shankar_Ravi_1920-2012",22.8,83,3
"1645","Shapiro_Nat",41.1803175925926,-82.528537037037,3
"1646","Shaw_Bessie",36.9091926878307,-85.8555631693122,21
"1647","Shaw_John",49.0983333333333,-77.5566666666667,24
"1648","Shaw_Robert_1908 August 9-1985",34.3405477777778,-99.2599111111112,5
"1649","Shaw_Rosalie",44.1393037878788,-77.5633888888889,11
"1650","Shea_George Beverly_1909-2013",37.8605601388889,-64.9943526388889,20
"1651","Shean_Al_1868-1949",41.1803175925926,-82.528537037037,3
"1652","Sheehan_Juanita",39.8807541666665,-92.3980833333335,2
"1653","Sheehan_Shorty",39.8807541666665,-92.3980833333335,2
"1654","Shelton_B.F.",38.1928218888889,-85.6405772277778,20
"1655","Shelton_Robert_1926-2010",38.1877274305555,-81.8395902777777,8
"1656","Shepherd_Dewey_1906-1996",38.7093916666667,-88.1931666666667,6
"1657","Sherrill_Pappy_1915-2001",36.3610203292181,-86.4491930082305,27
"1658","Shimberg_Joe and Kathy",41.7519915462963,-87.4873449212963,24
"1659","Shines_Johnny",38.2367064814815,-92.0690925925926,3
"1660","Shirkey_Earl",39.2093916666667,-86.6931666666667,3
"1661","Shores_Joe",31.4400923722222,-91.6290507198413,14
"1662","Shorty_James",36.7760583333333,-87.0265,3
"1663","Siegel_Peter K.",25,-77.4,1
"1664","Silent Grove Baptist Church (Clarksdale_Miss.)",35.1832263888888,-92.0239888888889,6
"1665","Silverio_C.",23.4464814814815,-103.303194444444,6
"1666","Simon_Paul_1941-",17.942725,-49.8598333333333,3
"1667","Sims_Charlie",32.8181777011696,-91.3311367233918,19
"1668","Sinclair_Robert",40.5743916666667,-83.5387222222223,6
"1669","Singleton_Kitty Ritchie",36.7074425322997,-88.3088281266151,43
"1670","Sisson_Allen",35.9833798611111,-86.2028483333334,20
"1671","Sizemore_George Curly",37.9860192657005,-82.6719866135266,23
"1672","Skaggs_Ricky",38.1129101851852,-97.2535370370371,9
"1673","Skeens_Lee_Mrs._Child_Francis James_1825-1896",37.8110076296296,-90.2343334444447,15
"1674","Skinner_J. Scott",55.4166666666665,-3.70833333333335,2
"1675","Skrobacs_Lawrence",41.1803175925926,-82.528537037037,3
"1676","Sky_Patrick",39.442725,-84.5265,3
"1677","Small_Dol",37.7199029861111,-90.0593425277779,16
"1678","Small_J._banjo player",38.8,-81,1
"1679","Smiley_Red_1925-1972",37.8956435185185,-84.5952,27
"1680","Smith_Arthur_1898-1971",37.7609802116402,-85.7596901587302,105
"1681","Smith_Bertha",37.8605601388889,-64.9943526388889,20
"1682","Smith_Betty",37.9884525,-86.37385,10
"1683","Smith_Blaine",39.2093916666667,-86.6931666666667,3
"1684","Smith_Cal",39.2093916666667,-86.6931666666667,3
"1685","Smith_Clara",39.3905196972222,-82.2562881329861,32
"1686","Smith_Connie_1941-",37.9140875,-92.28975,2
"1687","Smith_Eugene",37.8605601388889,-64.9943526388889,20
"1688","Smith_Gid",36.6880291666667,-87.26325,6
"1689","Smith_Gipsy_1860-1947",37.8605601388889,-64.9943526388889,20
"1690","Smith_Harry Everett_1923-1991",41.4140875,-86.78975,8
"1691","Smith_Hobart_1897-1965",36.6459328978979,-85.4321283003003,37
"1692","Smith_Joyce",35.6583574074073,-90.395362962963,3
"1693","Smith_Lucius_1889-1980",35.1377532407408,-91.4378407407407,6
"1694","Smith_Odell",37.5306409166667,-86.5147480611112,20
"1695","Smith_Phoebe_1913-2001",53.4166666666665,-1.70833333333335,2
"1696","Smith_Pine Top_1904-1929",37.6778621527778,-89.622888888889,8
"1697","Smith_R. B._banjo player",38.8,-81,1
"1698","Smith_Versey",36.3072646388888,-86.5571569444444,20
"1699","Smith_Von Bulow_b. 1908",37.3226260784314,-86.2185565424837,17
"1700","Smith_Walter",38.5366214285714,-86.8798571428571,7
"1701","Smith_William",36.3072646388888,-86.5571569444444,20
"1702","Smith_Willie Mae Ford",37.8605601388889,-64.9943526388889,20
"1703","Smoke_Herbert",37.4814553535353,-86.0279759343434,22
"1704","Sneed_Fay",44.588075,-110.711833333334,5
"1705","Sneed_James_Roosevelt_Franklin D. (Franklin Delano)_1882-1945",36.4140875,-91.03975,2
"1706","Snow_Hank",39.9560188131313,-95.1354141414141,22
"1707","Snow_Kilby_1905-1980",40.880223015873,-70.9196349206349,21
"1708","Snow_Mac_1931-",38.042725,-86.5265,3
"1709","Soileau_Leo_1904-1980",35.4140875,-95.28975,6
"1710","Solomon_Vincent",35.4140875,-99.28975,2
"1711","Solseng_Ed",39.3615875,-87.8080833333335,2
"1712","Somerville_Andrew",38.0379241319445,-111.981722222223,16
"1713","Sonnier_Lennis",36.7939212222222,-89.7412551111111,25
"1714","Souchon_Edmond",33.6014287037037,-93.5526111111111,3
"1715","Sparks_Tom",44.8229127777778,-63.9789,5
"1716","Sparrow_John",37.3226260784314,-86.2185565424837,17
"1717","Speckled Red_1892-1973",36.0950183441077,-85.7861513185185,33
